[{"id":"AE2019085PFES2D","name":"CREATIVE CLOTHING COFZC","address":"Sharjah Airport Intl Free Zone, Saif Zone, Sharjah, 8017","country_code":"AE","lat":25.3265182,"lng":55.4958276,"country_name":"United Arab Emirates","contributors":"Arcadia Group (Arcadia August 2018 Facility List)"},{"id":"AE2019085TSEJJ4","name":"MILLENNIUM FASHIONS IND","address":"C2-7, Saif Zone, Sharjah, 8250","country_code":"AE","lat":25.3323584,"lng":55.4831661,"country_name":"United Arab Emirates","contributors":"Arcadia Group (Arcadia August 2018 Facility List)"},{"id":"AE2019093X2DHVP","name":"EURO TROUSERS MFG CO","address":"Between J1 & J2, Saif Zone, Sharjah, 8565","country_code":"AE","lat":25.3323584,"lng":55.4831661,"country_name":"United Arab Emirates","contributors":"Arcadia Group (Arcadia August 2018 Facility List)"},{"id":"AE20191764HEFF1","name":"Joudi International Fze","address":"Office No.1502, M.M Tower, Al Maktoum Street, Deira Dubai Dubai","country_code":"AE","lat":25.2606896,"lng":55.3200085,"country_name":"United Arab Emirates","contributors":"Agreement on Sustainable Garments and Textile (AGT) (101_2018)"},{"id":"AL20190835E5YKD","name":"TEK SH.P.K.","address":"Bruga Ismail Klosi Ish Kombinat Berat Qarku i Beratit","country_code":"AL","lat":40.723762,"lng":19.9435024,"country_name":"Albania","contributors":"VF Corporation (VF Corporation Factory List August 2019)"},{"id":"AL2019085B50RGY","name":"DOLPHIL SH.P.K","address":"Durres Xhafzotaj, , Rruges Durres Shijak, 2001","country_code":"AL","lat":41.3442157,"lng":19.547883,"country_name":"Albania","contributors":"Arcadia Group (Arcadia August 2018 Facility List)"},{"id":"AL2019085DMS4CG","name":"FARAONI SHPK","address":"KADASTRALE 1669 – FUSHE PREZE TIRANA ALBANIA","country_code":"AL","lat":41.4273095,"lng":19.6713707,"country_name":"Albania","contributors":"Clarks (Clarks (2018 Public List))"},{"id":"AR2019083B65Y64","name":"ZENDA LEATHER S.A.","address":"RUTA 11 KM, 43 1913 EMPALME MAGDALENA BUENOS AIRES Buenos Aires","country_code":"AR","lat":-35.0714159,"lng":-57.5333232,"country_name":"Argentina","contributors":"Esprit (Esprit Feb 2019 Facility List)"},{"id":"AR2019083DWXF65","name":"Gitti S.r.l.","address":"Italia 4043 (Av Juan B Justo Al 4500) Mar Del Plata Buenos Aires","country_code":"AR","lat":-37.972018,"lng":-57.6333032,"country_name":"Argentina","contributors":"Levi Strauss & Co. (Levi Strauss Co Facility List March 2019)"},{"id":"AR201908553Z0N8","name":"TOCCALINO CARLOS JAVIER Y TOCCALINO DANIEL ANTONIO S.H.","address":"IRIBARNE 960 - LUJAN, BUENOS AIRES, ARGENTINA LUJAN BUENOS AIRES","country_code":"AR","lat":-34.5856541,"lng":-59.1083894,"country_name":"Argentina","contributors":"Nike [Public List] (Nike November 2018 Facility List)"},{"id":"AR20190856ZD6RW","name":"ANDBRAVA SRL","address":"SARGENTO CABRAL  - PASAJE 62, Nº 1071 BUENOS AIRES  BUENOS AIRES  Pasaje 62, Nº 1071","country_code":"AR","lat":-34.6036844,"lng":-58.3815591,"country_name":"Argentina","contributors":"Nike [Public List] (Nike November 2018 Facility List)"},{"id":"AR20190858G1BP6","name":"DER WILL S.A.","address":"ESTEBAN ECHEVERRIA 3250-DON TORCUATO BUENOS AIRES BUENOS AIRES 1611","country_code":"AR","lat":-34.4938049,"lng":-58.6272715,"country_name":"Argentina","contributors":"Nike [Public List] (Nike November 2018 Facility List)|adidas (adidas)"},{"id":"AR20190858MZTRS","name":"R. A. INTERTRADING S. A.","address":"JOSE IGNACIO RUCCI 3951 CAPITAL FEDERAL BUENOS AIRES C1439FVQ","country_code":"AR","lat":-34.6764005,"lng":-58.4808136,"country_name":"Argentina","contributors":"Nike [Public List] (Nike November 2018 Facility List)"},{"id":"AR2019085FRK8XB","name":"TECNOSPORT LATINOAMERICANA S.A.","address":"AVENIDA FLANDES Nº 1272  PARQUE INDUSTRIAL VILLA FLANDRIA LUJAN BUENOS AIRES 0","country_code":"AR","lat":-34.5887259,"lng":-59.1826349,"country_name":"Argentina","contributors":"Nike [Public List] (Nike November 2018 Facility List)"},{"id":"AR2019085FYVC55","name":"COOPERATIVA TEXTIL SEUCA LTDA.","address":"LAS HERAS 513 GUAYMALLEN MENDOZA","country_code":"AR","lat":-32.8930597,"lng":-68.8184642,"country_name":"Argentina","contributors":"Nike [Public List] (Nike November 2018 Facility List)"},{"id":"AR2019085H68ERH","name":"SUOLA SA","address":"AV FRANCISCO RABANAL 3220 BUENOS AIRES BUENOS AIRES 1437","country_code":"AR","lat":-34.6656267,"lng":-58.4388679,"country_name":"Argentina","contributors":"Nike [Public List] (Nike November 2018 Facility List)"},{"id":"AR2019085KAC0K8","name":"SEDAMIL S.A. C.I.","address":"AV. DORREGO 737 BUENOS AIRES BUENOS AIRES C1414CKC","country_code":"AR","lat":-34.5925522,"lng":-58.4483405,"country_name":"Argentina","contributors":"Nike [Public List] (Nike November 2018 Facility List)"},{"id":"AR2019085NHNK3X","name":"COOPERSHOES - COOPERATIVA DE TRABALHO E INDUSTRIA DE CALÇADOS JOANETENSE LTDA (LAS FLORES)","address":"CALLE EL MOLINO LAS FLORES ARGENTINA 7200","country_code":"AR","lat":-36.0141576,"lng":-59.0992986,"country_name":"Argentina","contributors":"Nike [Public List] (Nike November 2018 Facility List)"},{"id":"AR2019085P30KPE","name":"SAN CARLOS TRADING S.A.","address":"SPURR 613 AVELLANEDA BUENOS AIRES CP 1870","country_code":"AR","lat":-34.6779008,"lng":-58.3586613,"country_name":"Argentina","contributors":"Nike [Public List] (Nike November 2018 Facility List)"},{"id":"AR2019085P6MWSH","name":"TEXTIL SPORT TECH S.A.","address":"ITUZAINGO 1001 LUJAN BUENOS AIRES 6700","country_code":"AR","lat":-34.5713423,"lng":-59.109673,"country_name":"Argentina","contributors":"Nike [Public List] (Nike November 2018 Facility List)"},{"id":"AR2019085VQ38T3","name":"TEXTIL ROCLAN S.A.","address":"TRES ARROYOS 564 CAPITAL FEDERAL BUENOS AIRES 1416","country_code":"AR","lat":-34.6034339,"lng":-58.4502764,"country_name":"Argentina","contributors":"Nike [Public List] (Nike November 2018 Facility List)"},{"id":"AR2019085WREEC8","name":"TEXTEL SPORT TECH S.A.","address":"ITURRASPE Nº 920, VILLA LYNCH SAN MARTIN BUENOS AIRES","country_code":"AR","lat":-34.5891346,"lng":-58.5318022,"country_name":"Argentina","contributors":"Nike [Public List] (Nike November 2018 Facility List)"},{"id":"AR2019085WVET2D","name":"DASS ELDORADO SRL","address":"ALBERTO BEJAR BARRIOS, 407 ELDORADO MISIONES 30-71008366-1","country_code":"AR","lat":-26.4105281,"lng":-54.6215368,"country_name":"Argentina","contributors":"Nike [Public List] (Nike November 2018 Facility List)"},{"id":"AR201908663251Y","name":"A Mutz Y Cia Sa","address":"Catalina De Boyle, sem informa‡?o, Buenos Aires, Argentina","country_code":"AR","lat":-34.5834193,"lng":-58.5251492,"country_name":"Argentina","contributors":"Agreement on Sustainable Garments and Textile (AGT) (16_2018)|C&A (C&A Supplier's facility list - April 2019)"},{"id":"AR20190874B0CDP","name":"Manufactura Arrecifes S.A.","address":"Ruta Nacional 8, Kilometro 178","country_code":"AR","lat":-33.7562673,"lng":-61.9731233,"country_name":"Argentina","contributors":"Levi Strauss & Co. (Levi Strauss Co Facility List March 2019)"},{"id":"AR20190875G1K4V","name":"Accecuer SA","address":"Juan Zanella 4656","country_code":"AR","lat":-34.6122622,"lng":-58.5616874,"country_name":"Argentina","contributors":"Levi Strauss & Co. (Levi Strauss Co Facility List March 2019)"},{"id":"AR2019087E0RD89","name":"TEXINTER S.A.","address":"Asamblea (101) #536, Villa Lynch B1672AIB, Buenos Aires","country_code":"AR","lat":-34.587664,"lng":-58.5320001,"country_name":"Argentina","contributors":"Levi Strauss & Co. (Levi Strauss Co Facility List March 2019)"},{"id":"AR2019087M97PHS","name":"Best Sox S.A.","address":"Charlone 1446","country_code":"AR","lat":-34.5807924,"lng":-58.4625866,"country_name":"Argentina","contributors":"Levi Strauss & Co. (Levi Strauss Co Facility List March 2019)"},{"id":"AR2019087QE0QZ9","name":"Spring S.R.L.","address":"Darwin, 173","country_code":"AR","lat":-34.5974853,"lng":-58.4497058,"country_name":"Argentina","contributors":"Levi Strauss & Co. (Levi Strauss Co Facility List March 2019)"},{"id":"AR2019087VDMBSE","name":"Vira Offis S.A.","address":"Virasoro, 3570","country_code":"AR","lat":-28.0543419,"lng":-56.0139884,"country_name":"Argentina","contributors":"Levi Strauss & Co. (Levi Strauss Co Facility List March 2019)"},{"id":"AR2019095RP65X3","name":"Procesadora Serviconf SRL","address":"Gobernardor Ramon Castro 4765","country_code":"AR","lat":-38.8637698,"lng":-69.7444293,"country_name":"Argentina","contributors":"Levi Strauss & Co. (Levi Strauss Co Facility List March 2019)"},{"id":"AR20190984DV6NQ","name":"R&A Indumentaria SRL","address":"Rosales 3867,,Villa Lynch,Municipalidad de San Martin,Buenos Aires,Argentina","country_code":"AR","lat":-34.5923267,"lng":-58.5226649,"country_name":"Argentina","contributors":"Fair Factories Clearinghouse (FFC FactoryList Apr 19)"},{"id":"AR2019098B0G3Q5","name":"TEXTIL SPORT TECH S.A. - 2","address":"Iturraspe 920,entre Rodriguez Peña y Progreso,Villa Lynch, San Martin,Buenos Aires,Buenos Aires,Argentina","country_code":"AR","lat":-34.5891346,"lng":-58.5318022,"country_name":"Argentina","contributors":"Fair Factories Clearinghouse (FFC FactoryList Apr 19)"},{"id":"AR2019098B9AVEQ","name":"Textil Sport Tech S.A.","address":"Juramento 5744, Vila Urquiza,Lujan,Buenos Aires,Argentina","country_code":"AR","lat":-34.5645151,"lng":-59.1214618,"country_name":"Argentina","contributors":"Fair Factories Clearinghouse (FFC FactoryList Apr 19)"},{"id":"AR2019098MM0NHY","name":"Perchet Argentina S.A.","address":"Ruta Nacional N° 5 KM 159,500,Chivilcoy,Buenos Aires,Argentina","country_code":"AR","lat":-34.89918,"lng":-59.959915,"country_name":"Argentina","contributors":"Fair Factories Clearinghouse (FFC FactoryList Apr 19)"},{"id":"AR2019098QVW5FJ","name":"R.A. Intertrading S.A.","address":"Jose I. Rucci (ex Pilar) 3951 / 55,Villa Lugano,Ciudad Autonoma de Buenoas Aires,Argentina","country_code":"AR","lat":-34.6757466,"lng":-58.4814481,"country_name":"Argentina","contributors":"Fair Factories Clearinghouse (FFC FactoryList Apr 19)|adidas (adidas)"},{"id":"AR2019143JEJY4V","name":"Will Der S.A.","address":"Cnel. Manuel Rosetti 3464  Olivos Partido de Vicente Lopez 1636 Buenos Aires Argentina","country_code":"AR","lat":-34.5146788,"lng":-58.5150883,"country_name":"Argentina","contributors":"adidas (adidas)"},{"id":"AR2019143JX59GM","name":"Khamsin S.A.","address":"Florentino Ameghino 1280 Florida  Vicente Lopez 1602 Buenos Aires Argentina","country_code":"AR","lat":-34.5410453,"lng":-58.51383,"country_name":"Argentina","contributors":"adidas (adidas)"},{"id":"AR2019143K2Z3JG","name":"Calcotrans S.R.L.","address":"EC Villegas 2288 ( calle 47 ) Villa Maipu - San Martin - B 1650 LLT  Buenos Aires 0 Buenos Aires Argentina","country_code":"AR","lat":-34.5641882,"lng":-58.526509,"country_name":"Argentina","contributors":"adidas (adidas)"},{"id":"AR2019143N594S7","name":"Romi S.R.L.","address":"Tres Arroyos 329   Haedo B1706FWC Buenos Aires Argentina","country_code":"AR","lat":-34.6427785,"lng":-58.6116176,"country_name":"Argentina","contributors":"adidas (adidas)"},{"id":"AR2019143T9K5BD","name":"DG2 Productos Textiles SRL","address":"Guiraldes 5651, San Martin   San Martín 1650 Buenos Aires Argentina","country_code":"AR","lat":-34.5757521,"lng":-58.5370965,"country_name":"Argentina","contributors":"adidas (adidas)"},{"id":"AR2019143V48GXV","name":"Will Der S.A. (Las Flores)","address":"Ruta 3 Km 186.5  Parque Industrial  Las Flores 7200 Buenos Aires Argentina","country_code":"AR","lat":-34.6625203,"lng":-58.5183566,"country_name":"Argentina","contributors":"adidas (adidas)"},{"id":"AR2019143XC6Q0D","name":"R.A. Intertrading S.A. (Aquino)","address":"Aquino 6077   buenos aires  1439 Ciudad Autonoma de Buenos Aires Argentina","country_code":"AR","lat":-34.6775276,"lng":-58.4806673,"country_name":"Argentina","contributors":"adidas (adidas)"},{"id":"AR2019143XMYMFS","name":"Dass Suarez S.a.","address":"Olavarria, 636   Coronel Suárez 7540 Buenos Aires Argentina","country_code":"AR","lat":-37.4752071,"lng":-61.9225427,"country_name":"Argentina","contributors":"adidas (adidas)"},{"id":"AT2019083Q06DMA","name":"LENZING AG","address":"Werkstrasse, 2 4860  Lenzing Upper Austria","country_code":"AT","lat":47.9753394,"lng":13.6153359,"country_name":"Austria","contributors":"Esprit (Esprit Feb 2019 Facility List)|Agreement on Sustainable Garments and Textile (AGT) (101_2018)|Tchibo (Open Apparel_Tchibo Textile Manufacturers and WPU_Jan2019)"},{"id":"BA2019083S01TJ0","name":"Amika D.O.O.","address":"Zeljeznick Br. 9, 74400 Derventa","country_code":"BA","lat":44.9764185,"lng":17.9070412,"country_name":"Bosnia and Herzegovina","contributors":"Clarks (Clarks (2018 Public List))|John Lewis PLC (OAR CSV file)|Aldi [Public List] (Aldi July 2018 Facility List)|Pentland [Public List] (Pentland Facility List Tier 1 March 26 2019)"},{"id":"BA2019085K4R58R","name":"FBD d.o.o. / Calzaturificio dei Colli srl","address":"FBD D.O.O. VARAZDINSKI 2 88220 SIROKI BRIJEG BOSNIA HERZEGOVINIA","country_code":"BA","lat":43.3751931,"lng":17.6012831,"country_name":"Bosnia and Herzegovina","contributors":"Clarks (Clarks (2018 Public List))"},{"id":"BA2019085PD3EFZ","name":"SPORTEK","address":"MILOSA OBLICA KOTOR VAROS BANJA LUKA 78220","country_code":"BA","lat":44.6183993,"lng":17.3712258,"country_name":"Bosnia and Herzegovina","contributors":"Nike [Public List] (Nike November 2018 Facility List)"},{"id":"BA201908659BEEJ","name":"Hakadesch doo - Unit 2","address":"Put Srpske Vojske, 78400, Gradiska, Bosnia and Herzegovina","country_code":"BA","lat":45.1370703,"lng":17.2604126,"country_name":"Bosnia and Herzegovina","contributors":"Agreement on Sustainable Garments and Textile (AGT) (16_2018)|C&A (C&A Supplier's facility list - April 2019)"},{"id":"BA2019086SGN6WX","name":"Socksmaker 3 doo","address":"Bukva BB, 74260, Tesanj, Bosnia and Herzegovina","country_code":"BA","lat":44.6227163,"lng":17.9989207,"country_name":"Bosnia and Herzegovina","contributors":"Agreement on Sustainable Garments and Textile (AGT) (16_2018)|C&A (C&A Supplier's facility list - April 2019)"},{"id":"BD201908300MBGC","name":"AP Xpress & Union accessories","address":"Gulshan 1212  Dhaka Dhaka","country_code":"BD","lat":23.7924961,"lng":90.4078058,"country_name":"Bangladesh","contributors":"Esprit (Esprit Feb 2019 Facility List)"},{"id":"BD201908311W3RP","name":"Jinnat apparels ltd","address":"Sardagonj, Kashimpur 1349  Gazipur Gazipur","country_code":"BD","lat":23.9703785,"lng":90.294534,"country_name":"Bangladesh","contributors":"Esprit (Esprit Feb 2019 Facility List)|G-Star RAW (G-Star Manufacturing List June 2019)|Agreement on Sustainable Garments and Textile (AGT) (101_2018)"},{"id":"BD20190831942AQ","name":"FCI (BD) Ltd","address":"Plot No 36-39 Dhaka Export Processing Zone Ganakbari  Savar  Dhaka","country_code":"BD","lat":23.9493593,"lng":90.2708598,"country_name":"Bangladesh","contributors":"Esprit (Esprit Feb 2019 Facility List)|Debenhams [Public List] (Debenhams Facility List December 2018)|Agreement on Sustainable Garments and Textile (AGT) (16_2018)|Agreement on Sustainable Garments and Textile (AGT) (101_2018)|Next Plc (Next Plc)"},{"id":"BD20190831NP5HZ","name":"Medlar Apparels Ltd.","address":"Vill-East Narshingpur Union-Yearpur Ashulia Savar Dhaka Dhaka","country_code":"BD","lat":23.9003712,"lng":90.3272255,"country_name":"Bangladesh","contributors":"VF Corporation (VF Corporation Factory List August 2019)|Levi Strauss & Co. (Levi Strauss Co Facility List March 2019)"},{"id":"BD20190831TKCF6","name":"Hamza Textiles Ltd (Washing Unit)","address":"Nayapara, Kashimpur 1346  Gazipur Gazipur","country_code":"BD","lat":23.9887791,"lng":90.3209478,"country_name":"Bangladesh","contributors":"Esprit (Esprit Feb 2019 Facility List)"},{"id":"BD201908322337E","name":"Supia Cotton","address":"North Mawna 1743 Sreepur Gazipur Gazipur","country_code":"BD","lat":24.2206888,"lng":90.4122717,"country_name":"Bangladesh","contributors":"Esprit (Esprit Feb 2019 Facility List)"},{"id":"BD201908322TKWA","name":"Gms composite knitting ind ltd","address":"Shardagonj, Kashimpur 1346  Gazipur Gazipur","country_code":"BD","lat":23.9703785,"lng":90.294534,"country_name":"Bangladesh","contributors":"Amer Sports (Amer Sports)|Esprit (Esprit Feb 2019 Facility List)|Agreement on Sustainable Garments and Textile (AGT) (101_2018)"},{"id":"BD20190832350Z6","name":"That's It Sports Wear Ltd","address":"East Narashinghpur, 147,148, Ashulia 1341 Savar Dhaka Dhaka","country_code":"BD","lat":23.9003712,"lng":90.3272255,"country_name":"Bangladesh","contributors":"PVH [Public List] (PVH December 31 2018 Facility List)|Esprit (Esprit Feb 2019 Facility List)|Agreement on Sustainable Garments and Textile (AGT) (101_2018)"},{"id":"BD20190832DY91M","name":"Denimach","address":"Ward No 5  Kewa Mouja  Gorgoria Masterbari  Sreepur Gazipur","country_code":"BD","lat":24.1877674,"lng":90.4314816,"country_name":"Bangladesh","contributors":"Next Plc (Next Plc)|Levi Strauss & Co. (Levi Strauss Co Facility List March 2019)"},{"id":"BD20190832FSW03","name":"Dekko Apparels Ltd.","address":"Plot/M4, Road 07, Section 07, Mirpur Housing Estate 1216 Mirpur Dhaka Dhaka","country_code":"BD","lat":23.7778181,"lng":90.3612683,"country_name":"Bangladesh","contributors":"BRAC University (Mapped in Bangladesh: Export-oriented RMG Factory List Sep 2019)|Esprit (Esprit Feb 2019 Facility List)|Agreement on Sustainable Garments and Textile (AGT) (101_2018)"},{"id":"BD20190832G5VN4","name":"Bestwoolsweater ltd","address":"Jarun, Konabari 1346  Gazipur Gazipur","country_code":"BD","lat":23.9979189,"lng":90.3207299,"country_name":"Bangladesh","contributors":"Esprit (Esprit Feb 2019 Facility List)"},{"id":"BD20190832W72Z3","name":"HAMS Washing & Dyeing Ltd.","address":"Dakkhing Vangnahati 1349 Sreepur Gazipur Gazipur","country_code":"BD","lat":24.1996574,"lng":90.4809098,"country_name":"Bangladesh","contributors":"Esprit (Esprit Feb 2019 Facility List)|Agreement on Sustainable Garments and Textile (AGT) (101_2018)"},{"id":"BD201908331S385","name":"Natural denims ltd","address":"Tongabari Ashulia, 532 1341 Savar Dhaka Dhaka","country_code":"BD","lat":23.9003712,"lng":90.3272255,"country_name":"Bangladesh","contributors":"Esprit (Esprit Feb 2019 Facility List)|Agreement on Sustainable Garments and Textile (AGT) (101_2018)"},{"id":"BD201908337SFCV","name":"Dynamic Sweater Ind: Ltd","address":"Ganda, 10 1340 Savar Dhaka Dhaka","country_code":"BD","lat":23.8316673,"lng":90.2637745,"country_name":"Bangladesh","contributors":"Esprit (Esprit Feb 2019 Facility List)|Agreement on Sustainable Garments and Textile (AGT) (101_2018)"},{"id":"BD20190833TFGTK","name":"Pinaki Garments Ltd","address":"Ag Tower Plot 09 Block C Tongi Industrial Area Himardighi Tongi Gazipur","country_code":"BD","lat":23.898117,"lng":90.3972052,"country_name":"Bangladesh","contributors":"Arcadia Group (Arcadia August 2018 Facility List)|Debenhams [Public List] (Debenhams Facility List December 2018)|Next Plc (Next Plc)"},{"id":"BD20190834AY2Q2","name":"Snowtex Outerwear Ltd.","address":"B-65/3 Lakuriapara Dhulivita Dhamrai Dhaka","country_code":"BD","lat":23.90884,"lng":90.2080053,"country_name":"Bangladesh","contributors":"Agreement on Sustainable Garments and Textile (AGT) (16_2018)|VF Corporation (VF Corporation Factory List August 2019)|Debenhams [Public List] (Debenhams Facility List December 2018)|C&A (C&A Supplier's facility list - April 2019)"},{"id":"BD20190834FPND8","name":"Bangladesh Spinners & Knitters (Pvt) Ltd (Bskl)","address":"Plot 6-11 Sector 4/A Chitagong Export Processing Zone Chittagong","country_code":"BD","lat":22.2931261,"lng":91.7780192,"country_name":"Bangladesh","contributors":"Varner AS (Varner Brands facility list 2019)|VF Corporation (VF Corporation Factory List August 2019)|Next Plc (Next Plc)"},{"id":"BD20190834T4PVG","name":"Globus Garments Ltd.","address":"K.S. Complex, Mouchak 1751 Kaliakoir Gazipur Gazipur","country_code":"BD","lat":24.0217539,"lng":90.297229,"country_name":"Bangladesh","contributors":"Agreement on Sustainable Garments and Textile (AGT) (16_2018)|Varner AS (Varner Brands facility list 2019)|Esprit (Esprit Feb 2019 Facility List)|C&A (C&A Supplier's facility list - April 2019)"},{"id":"BD20190834TRT4H","name":"Hamza Textiles Ltd","address":"Nayapara, Kashimpur 1346  Gazipur Gazipur","country_code":"BD","lat":23.9887791,"lng":90.3209478,"country_name":"Bangladesh","contributors":"Agreement on Sustainable Garments and Textile (AGT) (68_2018)|Esprit (Esprit Feb 2019 Facility List)|G-Star RAW (G-Star Manufacturing List June 2019)|Agreement on Sustainable Garments and Textile (AGT) (101_2018)"},{"id":"BD20190835400Z5","name":"Toy Woods (BD) Co., Ltd.","address":"Plot No. 31 Sector 04 Cepz Chittagong Chittagong","country_code":"BD","lat":22.2931261,"lng":91.7780192,"country_name":"Bangladesh","contributors":"VF Corporation (VF Corporation Factory List August 2019)"},{"id":"BD201908359JBY6","name":"Four H Apparels Limited","address":"295 Jalalabad Hathazari Road Baluchara Chittagong","country_code":"BD","lat":22.405391,"lng":91.818245,"country_name":"Bangladesh","contributors":"Agreement on Sustainable Garments and Textile (AGT) (16_2018)|PVH [Public List] (PVH December 31 2018 Facility List)|C&A (C&A Supplier's facility list - April 2019)|Next Plc (Next Plc)"},{"id":"BD20190835GR8CY","name":"Columbia Washing Plant Ltd.","address":"Baniarchala  Memberbari  Bhabanipur Gazipur Dhaka","country_code":"BD","lat":24.1572873,"lng":90.4255486,"country_name":"Bangladesh","contributors":"Target Corporation (Target Apparel and Accessories Factory List July 2019)"},{"id":"BD20190835VD8BX","name":"Consumer Knittex Limited","address":"Dhamsur Bhaluka Mymensingh 2240","country_code":"BD","lat":24.38,"lng":90.35,"country_name":"Bangladesh","contributors":"Arcadia Group (Arcadia August 2018 Facility List)|Next Plc (Next Plc)"},{"id":"BD20190835VNR5F","name":"Wash & wear Ltd(Natural Group)","address":"Tongabari Ashulia, 532 1341 Savar Dhaka Dhaka","country_code":"BD","lat":23.9003712,"lng":90.3272255,"country_name":"Bangladesh","contributors":"Esprit (Esprit Feb 2019 Facility List)|Agreement on Sustainable Garments and Textile (AGT) (101_2018)"},{"id":"BD201908367710J","name":"Newage Apparels Ltd.","address":"Purbo Narasinghapur Ashulia Dhaka Dhaka","country_code":"BD","lat":23.810332,"lng":90.4125181,"country_name":"Bangladesh","contributors":"C&A (C&A Supplier's facility list - April 2019)"},{"id":"BD2019083689E68","name":"T&M","address":"56 Lake Circus (3rd fl) 1205 West Panthapath Dhaka Dhaka","country_code":"BD","lat":23.7516288,"lng":90.381457,"country_name":"Bangladesh","contributors":"Esprit (Esprit Feb 2019 Facility List)|Agreement on Sustainable Garments and Textile (AGT) (101_2018)"},{"id":"BD20190836MNYJW","name":"Matin Spinning Mills Ltd","address":"Sardagonj, Kashimpur 1349  Gazipur Gazipur","country_code":"BD","lat":23.9703785,"lng":90.294534,"country_name":"Bangladesh","contributors":"Esprit (Esprit Feb 2019 Facility List)|Agreement on Sustainable Garments and Textile (AGT) (101_2018)"},{"id":"BD20190836S44Y2","name":"Agami washing Ltd.","address":"Holding, 79/1, Chandra 1750  Gazipur Gazipur","country_code":"BD","lat":23.9999405,"lng":90.4202724,"country_name":"Bangladesh","contributors":"Agreement on Sustainable Garments and Textile (AGT) (16_2018)|Agreement on Sustainable Garments and Textile (AGT) (101_2018)|Esprit (Esprit Feb 2019 Facility List)|C&A (C&A Supplier's facility list - April 2019)"},{"id":"BD20190836Z7GF8","name":"Geebee (Bangladesh) Limited","address":"74-77 Sector 02 Karnaphali Epz North Patenga Chittagong - 4204","country_code":"BD","lat":22.2735002,"lng":91.7915945,"country_name":"Bangladesh","contributors":"VF Corporation (VF Corporation Factory List August 2019)|Next Plc (Next Plc)"},{"id":"BD201908374EC57","name":"Dressmen Apparels Ltd","address":"Pallirani, ChandraSavar, Kaliakoir Road,Mouza, Gazipur","country_code":"BD","lat":24.119897,"lng":90.2807868,"country_name":"Bangladesh","contributors":"Agreement on Sustainable Garments and Textile (AGT) (16_2018)|Tesco [Public List] (Tesco March 2018 Facility List)|C&A (C&A Supplier's facility list - April 2019)"},{"id":"BD201908375VWKK","name":"South China Bleaching & Dyeing Factory Ltd.","address":"Plot no 93-96, 109-112, DEPZ  Savar Dhaka Dhaka","country_code":"BD","lat":23.9501366,"lng":90.2732621,"country_name":"Bangladesh","contributors":"Esprit (Esprit Feb 2019 Facility List)|Agreement on Sustainable Garments and Textile (AGT) (101_2018)"},{"id":"BD20190837ABDV1","name":"Creative Wash Ltd","address":"Nishat Nagar  Tongi Gazipur Gazipur","country_code":"BD","lat":23.8955914,"lng":90.3935672,"country_name":"Bangladesh","contributors":"Esprit (Esprit Feb 2019 Facility List)"},{"id":"BD20190837GEDK2","name":"Sufia Weaving","address":"North Mawna 1743 Sreepur Gazipur Gazipur","country_code":"BD","lat":24.2206888,"lng":90.4122717,"country_name":"Bangladesh","contributors":"Esprit (Esprit Feb 2019 Facility List)"},{"id":"BD20190837W0DZC","name":"Blue Planet Knitwear Ltd","address":"Mulaid 1740 Sreepur Gazipur Gazipur","country_code":"BD","lat":24.23,"lng":90.41,"country_name":"Bangladesh","contributors":"Esprit (Esprit Feb 2019 Facility List)|Agreement on Sustainable Garments and Textile (AGT) (35_2018)|Agreement on Sustainable Garments and Textile (AGT) (101_2018)"},{"id":"BD20190838737J8","name":"Noman Spinning","address":"North Mawna 1743 Sreepur Gazipur Gazipur","country_code":"BD","lat":24.2206888,"lng":90.4122717,"country_name":"Bangladesh","contributors":"Esprit (Esprit Feb 2019 Facility List)"},{"id":"BD2019083885QS2","name":"Soorty Textiles (BD) Ltd.","address":"Plot No. 220-227, Comilla EPZ 3500  Comilla Chittagong","country_code":"BD","lat":23.4441553,"lng":91.1814979,"country_name":"Bangladesh","contributors":"Esprit (Esprit Feb 2019 Facility List)|Agreement on Sustainable Garments and Textile (AGT) (101_2018)"},{"id":"BD20190838D75VS","name":"Silver Composite Textile Mills Ltd (Unit-1 Garments)","address":"Bk Bari Taltoly Monipur Mirzapur Bazar Gazipur Sadar Gazipur","country_code":"BD","lat":24.1166236,"lng":90.378162,"country_name":"Bangladesh","contributors":"Next Plc (Next Plc)|C&A (C&A Supplier's facility list - April 2019)"},{"id":"BD20190838EGM6X","name":"Esquire Knit Composite Ltd (Unit – 2)","address":"Kanchpur Sonargaon Naraygon","country_code":"BD","lat":23.6999085,"lng":90.5281454,"country_name":"Bangladesh","contributors":"Agreement on Sustainable Garments and Textile (AGT) (16_2018)|C&A (C&A Supplier's facility list - April 2019)"},{"id":"BD20190838GD4EM","name":"DB Tex Ltd (Higg Index name is Hamza Textiles Ltd (Washing Unit))","address":"Nayapara, Kashimpur 1346  Gazipur Gazipur","country_code":"BD","lat":23.9887791,"lng":90.3209478,"country_name":"Bangladesh","contributors":"Esprit (Esprit Feb 2019 Facility List)|Agreement on Sustainable Garments and Textile (AGT) (101_2018)"},{"id":"BD20190838NCE6T","name":"Intimate Apparels Ltd","address":"Plot No  91-93  Karnaphuli Export Processing Zone  N  PatengaChittagong","country_code":"BD","lat":22.5836813,"lng":92.1816582,"country_name":"Bangladesh","contributors":"Esprit (Esprit Feb 2019 Facility List)|Next Plc (Next Plc)"},{"id":"BD20190838WG4SE","name":"Coats BD","address":"Tegoan 1208 Farmgate Dhaka Dhaka","country_code":"BD","lat":23.7561067,"lng":90.3871961,"country_name":"Bangladesh","contributors":"Esprit (Esprit Feb 2019 Facility List)|Agreement on Sustainable Garments and Textile (AGT) (101_2018)"},{"id":"BD201908390PGCR","name":"AKH Eco Apparels Ltd.","address":"495, Balitha, Shahbelishwer, Dhamrai, Dhaka 1800","country_code":"BD","lat":23.9134629,"lng":90.1038868,"country_name":"Bangladesh","contributors":"BRAC University (Mapped in Bangladesh: Export-oriented RMG Factory List Sep 2019)|Aldi [Public List] (Aldi July 2018 Facility List)|Varner AS (Varner Brands facility list 2019)|GU (Fast Retailing) [Public List] (GU Dec 2017 Facility  List)|Target Corporation (Target Apparel and Accessories Factory List July 2019)|Agreement on Sustainable Garments and Textile (AGT) (16_2018)|PVH [Public List] (PVH December 31 2018 Facility List)|thesouth ('UNIQLO/Fast Retailing Core Sewing Factory List')|Next Plc (Next Plc)|C&A (C&A Supplier's facility list - April 2019)"},{"id":"BD2019083956DNK","name":"K-Tex Industrial Co Ltd","address":"Plot No 76 Road No 5 Block K Rupnagor Ia Dhaka 1216","country_code":"BD","lat":23.8281325,"lng":90.3601348,"country_name":"Bangladesh","contributors":"Arcadia Group (Arcadia August 2018 Facility List)|Next Plc (Next Plc)"},{"id":"BD201908395AJ7E","name":"Sams Attire Ltd","address":"Bhuiyan Tower, Plot No-10, Jamgora, Ashulia Road Dhaka 1349","country_code":"BD","lat":23.9118537,"lng":90.3198257,"country_name":"Bangladesh","contributors":"Esprit (Esprit Feb 2019 Facility List)|Agreement on Sustainable Garments and Textile (AGT) (16_2018)|C&A (C&A Supplier's facility list - April 2019)|Agreement on Sustainable Garments and Textile (AGT) (101_2018)|Next Plc (Next Plc)"},{"id":"BD201908396KWTN","name":"Alif embroidery village ltd. (Lam Mim associats printing unit).","address":"Ashulia  Savar Dhaka Dhaka","country_code":"BD","lat":23.9003712,"lng":90.3272255,"country_name":"Bangladesh","contributors":"Esprit (Esprit Feb 2019 Facility List)"},{"id":"BD20190839JG9ZG","name":"Cosmopolitan Industries (Pvt) Ltd.","address":"Khejur Bagan Ashulia Savar Dhaka Dhaka","country_code":"BD","lat":23.8905722,"lng":90.3219737,"country_name":"Bangladesh","contributors":"VF Corporation (VF Corporation Factory List August 2019)|Levi Strauss & Co. (Levi Strauss Co Facility List March 2019)|thesouth ('UNIQLO/Fast Retailing Core Sewing Factory List')"},{"id":"BD20190839NZZ3W","name":"Hamid Fabrics Ltd. (Concern of MAHIN Group)","address":"Hamid Tower 5th & 6th Floor, 24, Gulshan C/A, Circle-2 1212  Dhaka Dhaka","country_code":"BD","lat":23.7951463,"lng":90.4147704,"country_name":"Bangladesh","contributors":"Esprit (Esprit Feb 2019 Facility List)|Agreement on Sustainable Garments and Textile (AGT) (101_2018)"},{"id":"BD2019083A1ZQNK","name":"HANNAN FASHION'S LIMITED","address":"Shahid Siddique Road, 1155 1704 Khailkur, Board Bazar Gazipur Gazipur","country_code":"BD","lat":23.9403407,"lng":90.3881663,"country_name":"Bangladesh","contributors":"Esprit (Esprit Feb 2019 Facility List)|Agreement on Sustainable Garments and Textile (AGT) (101_2018)"},{"id":"BD2019083A6M9AM","name":"Zaber & Zubair Fabrics Ltd.","address":"Adamjee Court Main Building (5th Floor), 115-120, Motijheel C/A   Dhaka Dhaka","country_code":"BD","lat":23.7282232,"lng":90.4159701,"country_name":"Bangladesh","contributors":"Esprit (Esprit Feb 2019 Facility List)|Shop Direct [Public List] (Shop Direct December 2018 Facility List)"},{"id":"BD2019083AMNYHZ","name":"Dekko Accessories Ltd.","address":"Hemayatpur 1340 Savar Dhaka Dhaka","country_code":"BD","lat":23.7927863,"lng":90.2760903,"country_name":"Bangladesh","contributors":"Esprit (Esprit Feb 2019 Facility List)|Agreement on Sustainable Garments and Textile (AGT) (101_2018)"},{"id":"BD2019083AXKQ4J","name":"Four  H Lingerie Ltd","address":"B R T C Bus Depot Baluchara Hathazari Road Chittagong","country_code":"BD","lat":22.4164008,"lng":91.8199435,"country_name":"Bangladesh","contributors":"Tesco [Public List] (Tesco March 2018 Facility List)|Varner AS (Varner Brands facility list 2019)|Agreement on Sustainable Garments and Textile (AGT) (16_2018)|PVH [Public List] (PVH December 31 2018 Facility List)|Next Plc (Next Plc)|C&A (C&A Supplier's facility list - April 2019)"},{"id":"BD2019083B0GYH7","name":"Square Fashion ltd","address":"Jamirdia, Habir Bari 2240 Valuka Mymensingh Mymensingh","country_code":"BD","lat":24.3015275,"lng":90.3865674,"country_name":"Bangladesh","contributors":"Esprit (Esprit Feb 2019 Facility List)|Agreement on Sustainable Garments and Textile (AGT) (101_2018)"},{"id":"BD2019083B1HQ3M","name":"Pretty Sweaters Ltd","address":"Holding 222 Chayadana National University Gazipur Sadar Gazipur","country_code":"BD","lat":23.9504063,"lng":90.380132,"country_name":"Bangladesh","contributors":"Debenhams [Public List] (Debenhams Facility List December 2018)|GU (Fast Retailing) [Public List] (GU Dec 2017 Facility  List)|Agreement on Sustainable Garments and Textile (AGT) (16_2018)|thesouth ('UNIQLO/Fast Retailing Core Sewing Factory List')|Next Plc (Next Plc)|C&A (C&A Supplier's facility list - April 2019)"},{"id":"BD2019083B8RTHK","name":"Rahim Textile Mills Ltd.","address":"Shafipur (Kaliakoir)  Kaliakoir Gazipur Dhaka","country_code":"BD","lat":24.0232778,"lng":90.2772644,"country_name":"Bangladesh","contributors":"Esprit (Esprit Feb 2019 Facility List)|Agreement on Sustainable Garments and Textile (AGT) (101_2018)"},{"id":"BD2019083BJN7SF","name":"Noman Weaving","address":"North Mawna 1743 Sreepur Gazipur Gazipur","country_code":"BD","lat":24.2206888,"lng":90.4122717,"country_name":"Bangladesh","contributors":"Esprit (Esprit Feb 2019 Facility List)"},{"id":"BD2019083BZTY32","name":"Al-Muslim Acessories Ltd","address":"Nishchintapur, Zirabo, Ashulia 1340 Savar Dhaka Dhaka","country_code":"BD","lat":23.9098356,"lng":90.3204211,"country_name":"Bangladesh","contributors":"Esprit (Esprit Feb 2019 Facility List)|Agreement on Sustainable Garments and Textile (AGT) (101_2018)"},{"id":"BD2019083C04S9F","name":"Speed Color Ltd.","address":"Boro Rangamatia, Zirabo, Ashulia  Savar Dhaka Dhaka","country_code":"BD","lat":23.9118756,"lng":90.3045809,"country_name":"Bangladesh","contributors":"Esprit (Esprit Feb 2019 Facility List)|Agreement on Sustainable Garments and Textile (AGT) (101_2018)"},{"id":"BD2019083C2ZK96","name":"Noman Textiles Mills","address":"North Mawna 1743 Sreepur Gazipur Gazipur","country_code":"BD","lat":24.2206888,"lng":90.4122717,"country_name":"Bangladesh","contributors":"Esprit (Esprit Feb 2019 Facility List)"},{"id":"BD2019083C4PGP9","name":"Designer Fashion Limited","address":"Gohailbari Ashulia Savar Dhaka","country_code":"BD","lat":23.9861912,"lng":90.2268113,"country_name":"Bangladesh","contributors":"Next Plc (Next Plc)|C&A (C&A Supplier's facility list - April 2019)"},{"id":"BD2019083C6HZCB","name":"Square Fashion ltd","address":"Saradaganj Kashimpur 1349  Gazipur Gazipur","country_code":"BD","lat":23.9845353,"lng":90.3219053,"country_name":"Bangladesh","contributors":"Esprit (Esprit Feb 2019 Facility List)|Agreement on Sustainable Garments and Textile (AGT) (101_2018)"},{"id":"BD2019083C8QJPG","name":"Ismail Spinning","address":"North Mawna 1743 Sreepur Gazipur Gazipur","country_code":"BD","lat":24.2206888,"lng":90.4122717,"country_name":"Bangladesh","contributors":"Esprit (Esprit Feb 2019 Facility List)"},{"id":"BD2019083CC16TP","name":"PEARL GARMENTS CO LTD","address":"PALASHBARI NABINAGARASHULIA SAVAR","country_code":"BD","lat":23.9747375,"lng":90.2641981,"country_name":"Bangladesh","contributors":"Tesco [Public List] (Tesco March 2018 Facility List)|Levi Strauss & Co. (Levi Strauss Co Facility List March 2019)|VF Corporation (VF Corporation Factory List August 2019)"},{"id":"BD2019083CJZBMS","name":"MOHAMMADI KNIT STAR LIMITED","address":"1/219, Mahona, Bhabanipur 1703  Gazipur Gazipur","country_code":"BD","lat":24.16,"lng":90.43,"country_name":"Bangladesh","contributors":"Esprit (Esprit Feb 2019 Facility List)|Agreement on Sustainable Garments and Textile (AGT) (101_2018)"},{"id":"BD2019083CYK666","name":"YKK","address":"DEPZ 1349  Dhaka Dhaka","country_code":"BD","lat":23.9490676,"lng":90.265874,"country_name":"Bangladesh","contributors":"Agreement on Sustainable Garments and Textile (AGT) (20_2018)|Esprit (Esprit Feb 2019 Facility List)|Agreement on Sustainable Garments and Textile (AGT) (101_2018)"},{"id":"BD2019083EE9SHC","name":"DEKKO READYWEARS LTD","address":"Plot-M/1, Road-7, Section-7 1216 Mirpur Dhaka Dhaka","country_code":"BD","lat":23.8201961,"lng":90.3634896,"country_name":"Bangladesh","contributors":"Esprit (Esprit Feb 2019 Facility List)|Agreement on Sustainable Garments and Textile (AGT) (28_2018)|Agreement on Sustainable Garments and Textile (AGT) (16_2018)|Agreement on Sustainable Garments and Textile (AGT) (101_2018)|C&A (C&A Supplier's facility list - April 2019)"},{"id":"BD2019083EVCHNR","name":"Noman Homes","address":"North Mawna 1743 Sreepur Gazipur Gazipur","country_code":"BD","lat":24.2206888,"lng":90.4122717,"country_name":"Bangladesh","contributors":"Esprit (Esprit Feb 2019 Facility List)"},{"id":"BD2019083FBAHWE","name":"Park (Bangladesh) Co., Ltd.","address":"Plot No. - 7 To 11 Sector - 01  Karnaphuli Epz  Patenga Chittagong Chittagong","country_code":"BD","lat":22.2722356,"lng":91.7896745,"country_name":"Bangladesh","contributors":"VF Corporation (VF Corporation Factory List August 2019)"},{"id":"BD2019083FBS2E0","name":"MG Knit Flair Ltd","address":"31/1, Laxmipura, Chandana, Joydebpur 1700 Sadar Gazipur Gazipur","country_code":"BD","lat":23.9999405,"lng":90.4202724,"country_name":"Bangladesh","contributors":"Esprit (Esprit Feb 2019 Facility List)|Agreement on Sustainable Garments and Textile (AGT) (101_2018)"},{"id":"BD2019083FJAYRY","name":"Hannan Knitwears Ltd.","address":"Rohom Ali Road, 555, P.O.-National University 1704 Uttar Khailkur Gazipur Gazipur","country_code":"BD","lat":23.9504063,"lng":90.380132,"country_name":"Bangladesh","contributors":"Esprit (Esprit Feb 2019 Facility List)|Agreement on Sustainable Garments and Textile (AGT) (101_2018)"},{"id":"BD2019083FMD3G0","name":"Sterling Laundry Ltd.","address":"Dhania, Nayer Hat, Nobinagar 1349 Savar Dhaka Dhaka","country_code":"BD","lat":23.810332,"lng":90.4125181,"country_name":"Bangladesh","contributors":"Esprit (Esprit Feb 2019 Facility List)|Agreement on Sustainable Garments and Textile (AGT) (101_2018)|Tchibo (Open Apparel_Tchibo Textile Manufacturers and WPU_Jan2019)"},{"id":"BD2019083FPBP36","name":"Refat Garments Ltd","address":"East Narashinghpur, 147,148, Ashulia 1341 Savar Dhaka Dhaka","country_code":"BD","lat":23.9003712,"lng":90.3272255,"country_name":"Bangladesh","contributors":"Esprit (Esprit Feb 2019 Facility List)|Agreement on Sustainable Garments and Textile (AGT) (101_2018)"},{"id":"BD2019083FRMAPR","name":"New Dacca Industries Limited","address":"Beximco Industrial Park Sarabo Kashimpur Gazipur","country_code":"BD","lat":23.9835229,"lng":90.2687537,"country_name":"Bangladesh","contributors":"Agreement on Sustainable Garments and Textile (AGT) (16_2018)|Next Plc (Next Plc)|C&A (C&A Supplier's facility list - April 2019)|BRAC University (Mapped in Bangladesh: Export-oriented RMG Factory List Sep 2019)"},{"id":"BD2019083FTT3SW","name":"Blue Creations Ltd.","address":"38/1, Zitar Mor, Kashimpur  Sadar Gazipur Gazipur","country_code":"BD","lat":23.9845353,"lng":90.3219053,"country_name":"Bangladesh","contributors":"Esprit (Esprit Feb 2019 Facility List)|Agreement on Sustainable Garments and Textile (AGT) (101_2018)"},{"id":"BD2019083G0B9WX","name":"Noman Composite","address":"North Mawna 1743 Sreepur Gazipur Gazipur","country_code":"BD","lat":24.2206888,"lng":90.4122717,"country_name":"Bangladesh","contributors":"Esprit (Esprit Feb 2019 Facility List)"},{"id":"BD2019083G14A3Z","name":"Garments Export Village Limited","address":"Maa Tower Kbmroad Tongi I/A Tongi -1710 Gazipur","country_code":"BD","lat":23.898725,"lng":90.404039,"country_name":"Bangladesh","contributors":"Agreement on Sustainable Garments and Textile (AGT) (16_2018)|Next Plc (Next Plc)|C&A (C&A Supplier's facility list - April 2019)"},{"id":"BD2019083GA0PBR","name":"Ismail Textile","address":"North Mawna 1743 Sreepur Gazipur Gazipur","country_code":"BD","lat":24.2206888,"lng":90.4122717,"country_name":"Bangladesh","contributors":"Esprit (Esprit Feb 2019 Facility List)"},{"id":"BD2019083GNYNZM","name":"Sq celsius ltd(auto)","address":"Jamirdia, Habir Bari 2240 Valuka Mymensingh Mymensingh","country_code":"BD","lat":24.3015275,"lng":90.3865674,"country_name":"Bangladesh","contributors":"Esprit (Esprit Feb 2019 Facility List)|Agreement on Sustainable Garments and Textile (AGT) (101_2018)"},{"id":"BD2019083GSSXFB","name":"Talha Fabrics","address":"North Mawna 1743 Sreepur Gazipur Gazipur","country_code":"BD","lat":24.2206888,"lng":90.4122717,"country_name":"Bangladesh","contributors":"Esprit (Esprit Feb 2019 Facility List)"},{"id":"BD2019083GY5K58","name":"GH Haewae Co., Ltd.","address":"Plot No. 19-24 Sector 8 Cepz. South Halishahar Chittagong Chittagong","country_code":"BD","lat":22.2801645,"lng":91.7751828,"country_name":"Bangladesh","contributors":"VF Corporation (VF Corporation Factory List August 2019)"},{"id":"BD2019083HEV12T","name":"Sq celsius ltd(old fs sweater ltd)","address":"Beraiderchala, Keowa, Mawna 1740 Sreepur Gazipur Gazipur","country_code":"BD","lat":24.2113442,"lng":90.4408077,"country_name":"Bangladesh","contributors":"Esprit (Esprit Feb 2019 Facility List)|Agreement on Sustainable Garments and Textile (AGT) (101_2018)"},{"id":"BD2019083HS2QNN","name":"Square Fashion ltd","address":"Chandona, Bashon Union 1702 Joydevpur Gazipur Gazipur","country_code":"BD","lat":23.9901217,"lng":90.3814017,"country_name":"Bangladesh","contributors":"Esprit (Esprit Feb 2019 Facility List)|Agreement on Sustainable Garments and Textile (AGT) (101_2018)"},{"id":"BD2019083JGTHNZ","name":"LCB International (BD) Ltd.","address":"Plot No. 48 Sector-7 Chittagong Export Processing Zone South Halishahar Chittagong Chittagong","country_code":"BD","lat":22.2931261,"lng":91.7780192,"country_name":"Bangladesh","contributors":"Esprit (Esprit Feb 2019 Facility List)|Agreement on Sustainable Garments and Textile (AGT) (101_2018)"},{"id":"BD2019083JHGQ8F","name":"Liz Apparels Ltd.","address":"2106 Kunia Borobari   National University Joydebpur Gazipur Dhaka","country_code":"BD","lat":23.9504063,"lng":90.380132,"country_name":"Bangladesh","contributors":"VF Corporation (VF Corporation Factory List August 2019)"},{"id":"BD2019083JW22K2","name":"Hannan fashions ltd","address":"Shahid Siddique Road, 1153-54 1704 Khailkur, Board Bazar Gazipur Gazipur","country_code":"BD","lat":23.9423202,"lng":90.3889096,"country_name":"Bangladesh","contributors":"Esprit (Esprit Feb 2019 Facility List)|Agreement on Sustainable Garments and Textile (AGT) (101_2018)"},{"id":"BD2019083JX325P","name":"Babylon Garments Ltd","address":"2-B/1, DARUS SALAM ROADMIRPUR","country_code":"BD","lat":23.797427,"lng":90.353002,"country_name":"Bangladesh","contributors":"BRAC University (Mapped in Bangladesh: Export-oriented RMG Factory List Sep 2019)|Arcadia Group (Arcadia August 2018 Facility List)|Tesco [Public List] (Tesco March 2018 Facility List)"},{"id":"BD2019083JXZAWH","name":"Evince Garments Ltd.","address":"Plot No. 33 Section - 7 Mirpur Dhaka Dhaka","country_code":"BD","lat":23.8197431,"lng":90.3617572,"country_name":"Bangladesh","contributors":"VF Corporation (VF Corporation Factory List August 2019)"},{"id":"BD2019083K5V8F7","name":"Indesore sweater ltd","address":"Degerchala, National University 1704 Sadar Gazipur Gazipur","country_code":"BD","lat":23.9630594,"lng":90.3968332,"country_name":"Bangladesh","contributors":"Esprit (Esprit Feb 2019 Facility List)|Agreement on Sustainable Garments and Textile (AGT) (101_2018)"},{"id":"BD2019083KBFXKT","name":"Energypac Fashions Ltd","address":"Hotapara Borkan Monipur Bhabani Pur Gazipur Sadar Gazipur","country_code":"BD","lat":24.1295146,"lng":90.3743318,"country_name":"Bangladesh","contributors":"John Lewis PLC (OAR CSV file)|Agreement on Sustainable Garments and Textile (AGT) (16_2018)|Arcadia Group (Arcadia August 2018 Facility List)|C&A (C&A Supplier's facility list - April 2019)|Next Plc (Next Plc)"},{"id":"BD2019083KJVJ6N","name":"Dipta Garments Ltd - Unit Of Dird Group","address":"Nagarchar  Rajfulbaria Savar  Dhaka","country_code":"BD","lat":23.8067271,"lng":90.250673,"country_name":"Bangladesh","contributors":"Next Plc (Next Plc)|C&A (C&A Supplier's facility list - April 2019)"},{"id":"BD2019083M5T95Y","name":"Shanta washworks ltd","address":"Plot: 219, DEPZ, (Extension area), Ganakbari 1349 Savar Dhaka Dhaka","country_code":"BD","lat":23.9457108,"lng":90.2811491,"country_name":"Bangladesh","contributors":"Esprit (Esprit Feb 2019 Facility List)|Agreement on Sustainable Garments and Textile (AGT) (101_2018)"},{"id":"BD2019083MCCVTY","name":"Cutting Edge Industries Ltd. (Washing)","address":"1612 South Salna Salna Bazar Gazipur Sadar Gazipur Dhaka","country_code":"BD","lat":24.0191527,"lng":90.3809957,"country_name":"Bangladesh","contributors":"Levi Strauss & Co. (Levi Strauss Co Facility List March 2019)"},{"id":"BD2019083ME5S41","name":"Ananta Denim Technology Ltd.","address":"Nayabari Kanchpur Sonargaon Narayangonj Dhaka","country_code":"BD","lat":23.6978888,"lng":90.5328281,"country_name":"Bangladesh","contributors":"Gap Inc (Gap Inc April 2019 - Factory List)|Levi Strauss & Co. (Levi Strauss Co Facility List March 2019)"},{"id":"BD2019083MQH0KC","name":"Unitex International","address":"108 B Nag Lane Gosail Danga Bandar Chittagong Chittagong","country_code":"BD","lat":22.3148452,"lng":91.8050218,"country_name":"Bangladesh","contributors":"Levi Strauss & Co. (Levi Strauss Co Facility List March 2019)"},{"id":"BD2019083MY5S0D","name":"Bangladesh Pou Hung Industrial Ltd.","address":"Plots No. 20-36 Sector-1  Karnaphuli Epz  North Petenga Chittagong Chittagong","country_code":"BD","lat":22.2722356,"lng":91.7896745,"country_name":"Bangladesh","contributors":"VF Corporation (VF Corporation Factory List August 2019)"},{"id":"BD2019083N1TBTJ","name":"Dhakarea Ltd.","address":"23-27 Dhaka Export Processing Zone (Depz) Extension Zone Ganakbari Ashulia Dhaka. Dhaka Dhaka","country_code":"BD","lat":23.9501366,"lng":90.2732621,"country_name":"Bangladesh","contributors":"Agreement on Sustainable Garments and Textile (AGT) (45_2018)|VF Corporation (VF Corporation Factory List August 2019)"},{"id":"BD2019083N2MZ4B","name":"Fairtex","address":"Nazim Nagar, Shingair Road, Hemayetpur 1340 Savar Dhaka Dhaka","country_code":"BD","lat":23.7927863,"lng":90.2760903,"country_name":"Bangladesh","contributors":"Agreement on Sustainable Garments and Textile (AGT) (16_2018)|Agreement on Sustainable Garments and Textile (AGT) (101_2018)|Esprit (Esprit Feb 2019 Facility List)|C&A (C&A Supplier's facility list - April 2019)"},{"id":"BD2019083N5HNXT","name":"EOS TEXTILE MILLS LTD","address":"Plot : 1-6, 17-22 DEPZ, (New Extension Area)  Savar Dhaka Dhaka","country_code":"BD","lat":23.9501366,"lng":90.2732621,"country_name":"Bangladesh","contributors":"Esprit (Esprit Feb 2019 Facility List)|Agreement on Sustainable Garments and Textile (AGT) (101_2018)"},{"id":"BD2019083P107HC","name":"Talha Spinning","address":"North Mawna 1743 Sreepur Gazipur Gazipur","country_code":"BD","lat":24.2206888,"lng":90.4122717,"country_name":"Bangladesh","contributors":"Esprit (Esprit Feb 2019 Facility List)"},{"id":"BD2019083P8RDKK","name":"Zubair Spinning","address":"North Mawna 1743 Sreepur Gazipur Gazipur","country_code":"BD","lat":24.2206888,"lng":90.4122717,"country_name":"Bangladesh","contributors":"Esprit (Esprit Feb 2019 Facility List)"},{"id":"BD2019083PZADCN","name":"Nice Denim Mills Ltd","address":"North Mawna 1743 Sreepur Gazipur Gazipur","country_code":"BD","lat":24.2206888,"lng":90.4122717,"country_name":"Bangladesh","contributors":"Esprit (Esprit Feb 2019 Facility List)|Tchibo (Open Apparel_Tchibo Textile Manufacturers and WPU_Jan2019)"},{"id":"BD2019083QA5W76","name":"Thanbee print world ltd","address":"Sardagonj, Kashimpur 1349  Gazipur Gazipur","country_code":"BD","lat":23.9703785,"lng":90.294534,"country_name":"Bangladesh","contributors":"Esprit (Esprit Feb 2019 Facility List)|Agreement on Sustainable Garments and Textile (AGT) (16_2018)|G-Star RAW (G-Star Manufacturing List June 2019)|Agreement on Sustainable Garments and Textile (AGT) (101_2018)|Agreement on Sustainable Garments and Textile (AGT) (68_2018)|C&A (C&A Supplier's facility list - April 2019)"},{"id":"BD2019083QFS589","name":"Aboni Knitwear Ltd","address":"169-171 Hemayetpur, Savar, Dhaka-3400","country_code":"BD","lat":23.7927863,"lng":90.2760903,"country_name":"Bangladesh","contributors":"Arcadia Group (Arcadia August 2018 Facility List)|Tesco [Public List] (Tesco March 2018 Facility List)"},{"id":"BD2019083QG63R5","name":"Billah Resources","address":"17 1 Kathaldia Squib Road Nishad Nagor Tongi Gazipur","country_code":"BD","lat":23.8955914,"lng":90.3935672,"country_name":"Bangladesh","contributors":"Arcadia Group (Arcadia August 2018 Facility List)|Debenhams [Public List] (Debenhams Facility List December 2018)|Next Plc (Next Plc)"},{"id":"BD2019083QK270G","name":"Nice cotton limited","address":"Panishail , kashimpur 1704  Gazipur Gazipur","country_code":"BD","lat":23.9936155,"lng":90.2619472,"country_name":"Bangladesh","contributors":"Esprit (Esprit Feb 2019 Facility List)|Agreement on Sustainable Garments and Textile (AGT) (101_2018)"},{"id":"BD2019083R63HP5","name":"Jinnat Knitwears Ltd","address":"Sardaganj Kashimpur Gazipur","country_code":"BD","lat":23.9703785,"lng":90.294534,"country_name":"Bangladesh","contributors":"Esprit (Esprit Feb 2019 Facility List)|G-Star RAW (G-Star Manufacturing List June 2019)|Agreement on Sustainable Garments and Textile (AGT) (101_2018)|Agreement on Sustainable Garments and Textile (AGT) (68_2018)|Next Plc (Next Plc)"},{"id":"BD2019083R6NXV8","name":"SQ Birichina Ltd - Activewear","address":"Jamirdia, Valuka 2240 Mymensingh Mymensingh Mymensingh","country_code":"BD","lat":24.3015275,"lng":90.3865674,"country_name":"Bangladesh","contributors":"Esprit (Esprit Feb 2019 Facility List)|Agreement on Sustainable Garments and Textile (AGT) (101_2018)"},{"id":"BD2019083R8ET5A","name":"Crown Exclusive Wears Ltd","address":"Mawna Sreepur Gazipur","country_code":"BD","lat":24.2113442,"lng":90.4408077,"country_name":"Bangladesh","contributors":"Agreement on Sustainable Garments and Textile (AGT) (16_2018)|Target Corporation (Target Apparel and Accessories Factory List July 2019)|C&A (C&A Supplier's facility list - April 2019)|Next Plc (Next Plc)"},{"id":"BD2019083RAEJMK","name":"Midland knitwears ltd","address":"Ramarbagh 1400 Fatullah Narayanganj Narayanganj","country_code":"BD","lat":23.9207596,"lng":90.2315018,"country_name":"Bangladesh","contributors":"Esprit (Esprit Feb 2019 Facility List)|Agreement on Sustainable Garments and Textile (AGT) (101_2018)"},{"id":"BD2019083RJHXPB","name":"Apparel Gallery Ltd.","address":"144 147 148 152 154 Basement 1St  2Nd And 3Rd Floors Of  Building 1  2Nd Floor Of    Building 2 And 4Th Floor Of Building 3  East Narashinghpur  Ashulia Savar Dhaka Dhaka","country_code":"BD","lat":23.9003712,"lng":90.3272255,"country_name":"Bangladesh","contributors":"VF Corporation (VF Corporation Factory List August 2019)"},{"id":"BD2019083RK8FBA","name":"Karnaphuli Shoes Industries Ltd. (Garment Unit)","address":"Korean Export Processing Zone Anowara Chittagong Chittagong","country_code":"BD","lat":22.2540408,"lng":91.8555628,"country_name":"Bangladesh","contributors":"lululemon [Public List] (lululemon March 2018 Facility List)|Levi Strauss & Co. (Levi Strauss Co Facility List March 2019)|VF Corporation (VF Corporation Factory List August 2019)"},{"id":"BD2019083RWG6PX","name":"Sterling styles ltd","address":"Baron, Earpur Union, Ashulia 1349 Savar Dhaka Dhaka","country_code":"BD","lat":22.9774248,"lng":90.8335671,"country_name":"Bangladesh","contributors":"Gap Inc (Gap Inc April 2019 - Factory List)|Esprit (Esprit Feb 2019 Facility List)|Agreement on Sustainable Garments and Textile (AGT) (101_2018)"},{"id":"BD2019083S4G78S","name":"SQUARE DENIMS LTD.","address":"Olipur  Shaistaganj Habiganj Habiganj","country_code":"BD","lat":24.3171533,"lng":91.4420468,"country_name":"Bangladesh","contributors":"Esprit (Esprit Feb 2019 Facility List)|Agreement on Sustainable Garments and Textile (AGT) (101_2018)"},{"id":"BD2019083S4R7WN","name":"Dhaka Garments & Washing Ltd.","address":"Dakkhin Vangnahati 1704 Sreepur Gazipur Gazipur","country_code":"BD","lat":24.1996574,"lng":90.4809098,"country_name":"Bangladesh","contributors":"Esprit (Esprit Feb 2019 Facility List)|Agreement on Sustainable Garments and Textile (AGT) (101_2018)"},{"id":"BD2019083SAC6ZH","name":"Aleya Design.","address":"Nishat Nagar Dhaour, 808, Turag 1230  Dhaka Dhaka","country_code":"BD","lat":23.8955914,"lng":90.3935672,"country_name":"Bangladesh","contributors":"Esprit (Esprit Feb 2019 Facility List)|Agreement on Sustainable Garments and Textile (AGT) (101_2018)"},{"id":"BD2019083SDF0AW","name":"Epyllion Group","address":"227/A Tejgaon-Gulshan Link Road 1208  Dhaka Dhaka","country_code":"BD","lat":23.7709007,"lng":90.404208,"country_name":"Bangladesh","contributors":"Esprit (Esprit Feb 2019 Facility List)|Agreement on Sustainable Garments and Textile (AGT) (101_2018)"},{"id":"BD2019083SZBDR5","name":"Goldtex Garments Ltd.","address":"Plot 98-100 Dhaka Export Processing Zone Gonokbari Ashulia Dhaka 1349 Bangladesh Dhaka Dhaka","country_code":"BD","lat":23.9501366,"lng":90.2732621,"country_name":"Bangladesh","contributors":"PVH [Public List] (PVH December 31 2018 Facility List)|Arcadia Group (Arcadia August 2018 Facility List)"},{"id":"BD2019083T1ETAA","name":"Zaber Spinning","address":"North Mawna 1743 Sreepur Gazipur Gazipur","country_code":"BD","lat":24.2206888,"lng":90.4122717,"country_name":"Bangladesh","contributors":"Esprit (Esprit Feb 2019 Facility List)"},{"id":"BD2019083TK3WS2","name":"Yasmin Spinning","address":"North Mawna 1743 Sreepur Gazipur Gazipur","country_code":"BD","lat":24.2206888,"lng":90.4122717,"country_name":"Bangladesh","contributors":"Esprit (Esprit Feb 2019 Facility List)"},{"id":"BD2019083TNMN1P","name":"SQ Hues Ltd.","address":"Jamardia  Valuka Mymensingh Mymensingh","country_code":"BD","lat":24.2920231,"lng":90.3983829,"country_name":"Bangladesh","contributors":"Esprit (Esprit Feb 2019 Facility List)|Agreement on Sustainable Garments and Textile (AGT) (101_2018)"},{"id":"BD2019083TTS6ZF","name":"BD Designs Private Limited","address":"Plot No 48 49 Sector 3 Karnaphuli Epz Chittagong","country_code":"BD","lat":22.2765829,"lng":91.7946388,"country_name":"Bangladesh","contributors":"New Look [Public List] (New Look March 2019 Facility List)|Arcadia Group (Arcadia August 2018 Facility List)|Aldi [Public List] (Aldi July 2018 Facility List)|Next Plc (Next Plc)"},{"id":"BD2019083VHTX44","name":"Bay Footwear Ltd.(Zone-2)","address":"Plot 2061 2062 Telirchala Mouchak Kaliakair Gazipur Dhaka","country_code":"BD","lat":24.0221867,"lng":90.304945,"country_name":"Bangladesh","contributors":"Clarks (Clarks (2018 Public List))"},{"id":"BD2019083VJP4Z3","name":"Fakir apparels ltd","address":"Plot A-127-131,135-138,142-145, B-501-503 BSCIC Hosiary I/A, Shashongaon 1400 Fatullah Narayanganj Narayanganj","country_code":"BD","lat":23.6241907,"lng":90.4797296,"country_name":"Bangladesh","contributors":"Esprit (Esprit Feb 2019 Facility List)|Agreement on Sustainable Garments and Textile (AGT) (101_2018)"},{"id":"BD2019083VNJYA7","name":"Aleya Embroidery Ltd.","address":"Nishat Nagar Dhaour, 808, Turag 1230  Dhaka Dhaka","country_code":"BD","lat":23.8955914,"lng":90.3935672,"country_name":"Bangladesh","contributors":"Esprit (Esprit Feb 2019 Facility List)|Agreement on Sustainable Garments and Textile (AGT) (101_2018)"},{"id":"BD2019083VT4BCD","name":"Denitex Ltd","address":"91 Karnapara Savar Dhaka","country_code":"BD","lat":23.8261662,"lng":90.2559216,"country_name":"Bangladesh","contributors":"Varner AS (Varner Brands facility list 2019)|Levi Strauss & Co. (Levi Strauss Co Facility List March 2019)|Next Plc (Next Plc)"},{"id":"BD2019083W74BFY","name":"SHEPHERD INDUSTRIES LIMITED","address":"House 24, Road 04 1230 Uttara Dhaka Dhaka","country_code":"BD","lat":23.8591906,"lng":90.4037947,"country_name":"Bangladesh","contributors":"Esprit (Esprit Feb 2019 Facility List)|Agreement on Sustainable Garments and Textile (AGT) (101_2018)"},{"id":"BD2019083WS16VM","name":"Zarba Textile","address":"North Mawna 1743 Sreepur Gazipur Gazipur","country_code":"BD","lat":24.2206888,"lng":90.4122717,"country_name":"Bangladesh","contributors":"Esprit (Esprit Feb 2019 Facility List)"},{"id":"BD2019083WTQF4X","name":"Blue Planet Fashionwear Ltd.","address":"Kewa, Mawna 1740 Sreepur Gazipur Gazipur","country_code":"BD","lat":24.2113442,"lng":90.4408077,"country_name":"Bangladesh","contributors":"Esprit (Esprit Feb 2019 Facility List)|Agreement on Sustainable Garments and Textile (AGT) (101_2018)"},{"id":"BD2019083X9BPVZ","name":"Evince Textiles Ltd","address":"Shirirchala, Bhabanipur 1704 Joydevpur Gazipur Gazipur","country_code":"BD","lat":24.1657388,"lng":90.4273165,"country_name":"Bangladesh","contributors":"Esprit (Esprit Feb 2019 Facility List)|Agreement on Sustainable Garments and Textile (AGT) (101_2018)"},{"id":"BD2019083XJZZ3D","name":"GMS COMPOSITE KNITTING IND. LTD","address":"Road No. 06, 110, New Dohs Mohakhali 1206  Dhaka Dhaka","country_code":"BD","lat":23.8336468,"lng":90.3657537,"country_name":"Bangladesh","contributors":"Esprit (Esprit Feb 2019 Facility List)|Agreement on Sustainable Garments and Textile (AGT) (101_2018)"},{"id":"BD2019083XRWGVS","name":"Shanta industries ltd","address":"Plot No. 198-201/220-223, DEPZ, Ganakbari 1349 Savar Dhaka Dhaka","country_code":"BD","lat":23.9501366,"lng":90.2732621,"country_name":"Bangladesh","contributors":"Esprit (Esprit Feb 2019 Facility List)|Agreement on Sustainable Garments and Textile (AGT) (101_2018)"},{"id":"BD2019083Y3EC4W","name":"Hannan knit & textiles ltd","address":"Kalmeeshor, 505, Board Bazer, National University 1704  Gazipur Gazipur","country_code":"BD","lat":23.9504063,"lng":90.380132,"country_name":"Bangladesh","contributors":"Esprit (Esprit Feb 2019 Facility List)|Agreement on Sustainable Garments and Textile (AGT) (101_2018)"},{"id":"BD2019083YTCF7Q","name":"Evitex Apparels Ltd","address":"Shirirchala Bhabanipur Joydebpur Gazipur","country_code":"BD","lat":23.9920539,"lng":90.2784385,"country_name":"Bangladesh","contributors":"BRAC University (Mapped in Bangladesh: Export-oriented RMG Factory List Sep 2019)|Tesco [Public List] (Tesco March 2018 Facility List)|Next Plc (Next Plc)|VF Corporation (VF Corporation Factory List August 2019)"},{"id":"BD2019083YX3KK1","name":"Mohammadi Fashion Sweaters Limited [MFSL]","address":"KA-52/A, Khilkhet 1229  Dhaka Dhaka","country_code":"BD","lat":23.8311224,"lng":90.4243013,"country_name":"Bangladesh","contributors":"Esprit (Esprit Feb 2019 Facility List)|Agreement on Sustainable Garments and Textile (AGT) (101_2018)"},{"id":"BD2019083YXW04R","name":"D & S pretty fashion ltd.","address":"Pretty Square, South Salna, Salna Bazar, Gazipur, Bangladesh","country_code":"BD","lat":24.0191527,"lng":90.3809957,"country_name":"Bangladesh","contributors":"Agreement on Sustainable Garments and Textile (AGT) (16_2018)|GU (Fast Retailing) [Public List] (GU Dec 2017 Facility  List)|C&A (C&A Supplier's facility list - April 2019)"},{"id":"BD2019083Z4RT0J","name":"NHT Fashions Ltd","address":"Plot  20-22 Sector 05 Chittagong Export Processing Zone  Chittagong","country_code":"BD","lat":22.2931261,"lng":91.7780192,"country_name":"Bangladesh","contributors":"Gap Inc (Gap Inc April 2019 - Factory List)|Target Corporation (Target Apparel and Accessories Factory List July 2019)|Agreement on Sustainable Garments and Textile (AGT) (16_2018)|Next Plc (Next Plc)|C&A (C&A Supplier's facility list - April 2019)"},{"id":"BD2019083ZHCF7F","name":"Zarba Spinning","address":"North Mawna 1743 Sreepur Gazipur Gazipur","country_code":"BD","lat":24.2206888,"lng":90.4122717,"country_name":"Bangladesh","contributors":"Esprit (Esprit Feb 2019 Facility List)"},{"id":"BD2019083ZKF569","name":"Zaber & Zubair Fabrics Ltd.","address":"Pagar  Tongi Gazipur Gazipur","country_code":"BD","lat":23.896051,"lng":90.418952,"country_name":"Bangladesh","contributors":"Esprit (Esprit Feb 2019 Facility List)|Agreement on Sustainable Garments and Textile (AGT) (28_2018)"},{"id":"BD2019083ZZ5XMH","name":"Square Fashion Limited","address":"Square Centre, 48, Mohakhali C/A 1212  Dhaka Dhaka","country_code":"BD","lat":23.7806077,"lng":90.4071378,"country_name":"Bangladesh","contributors":"Esprit (Esprit Feb 2019 Facility List)|Agreement on Sustainable Garments and Textile (AGT) (101_2018)"},{"id":"BD2019084TR4QES","name":"Silver Composite Textile Mills Ltd (Bangladesh-Gazipur)","address":"B.K Bari, (Taltoly), Monipur  Sadar Gazipur Gazipur","country_code":"BD","lat":24.1166236,"lng":90.378162,"country_name":"Bangladesh","contributors":"Esprit (Esprit Feb 2019 Facility List)"},{"id":"BD20190851RAHWF","name":"INTERLINK APPARELS LTD","address":"Plot No 1619-1621, Vogra, Joydevpur, Dhaka,","country_code":"BD","lat":23.9999405,"lng":90.4202724,"country_name":"Bangladesh","contributors":"Arcadia Group (Arcadia August 2018 Facility List)"},{"id":"BD20190853EMPB5","name":"MASIHATA SWEATERS LTD","address":"South Panishail, BKSP, Kashimpur, Gazipur, 1349","country_code":"BD","lat":23.9878046,"lng":90.2521179,"country_name":"Bangladesh","contributors":"Gap Inc (Gap Inc April 2019 - Factory List)|Arcadia Group (Arcadia August 2018 Facility List)|John Lewis PLC (OAR CSV file)"},{"id":"BD20190853GJD9T","name":"Epyllion Style Limited","address":"Bahadurpur, Vhawal Mirzapur, Gazipur Sadar Gazipur","country_code":"BD","lat":24.0838737,"lng":90.350102,"country_name":"Bangladesh","contributors":"PVH [Public List] (PVH December 31 2018 Facility List)|Agreement on Sustainable Garments and Textile (AGT) (68_2018)|C&A (C&A Supplier's facility list - April 2019)"},{"id":"BD20190853J7T9Y","name":"ORCHID GARMENTS LTD","address":"Chhaydana, Degerchala Road, National University, Gazipur, Dhaka, 1704","country_code":"BD","lat":23.9504063,"lng":90.380132,"country_name":"Bangladesh","contributors":"Arcadia Group (Arcadia August 2018 Facility List)"},{"id":"BD20190853TSZ0M","name":"Crescent Fashion and Design Ltd.","address":"Beximco Industrial Park, Sarabo, Kashimpur, Gazipur, Dhaka 1346 Gazipur","country_code":"BD","lat":23.9835229,"lng":90.2687537,"country_name":"Bangladesh","contributors":"BRAC University (Mapped in Bangladesh: Export-oriented RMG Factory List Sep 2019)|Agreement on Sustainable Garments and Textile (AGT) (16_2018)|PVH [Public List] (PVH December 31 2018 Facility List)|Arcadia Group (Arcadia August 2018 Facility List)|C&A (C&A Supplier's facility list - April 2019)"},{"id":"BD2019085475EQM","name":"ALIF CASUAL WEAR LIMITED","address":"69, Vogra, Gazipur Sador, Gazipur, 1704","country_code":"BD","lat":23.9772783,"lng":90.3805947,"country_name":"Bangladesh","contributors":"Arcadia Group (Arcadia August 2018 Facility List)"},{"id":"BD20190854PCRYV","name":"SWEATERTECH LTD","address":"Plot 898, 1351, Gacha Road, Gazipur Sadar, Gazipur, Dhaka, 1704","country_code":"BD","lat":23.9357149,"lng":90.3689797,"country_name":"Bangladesh","contributors":"BRAC University (Mapped in Bangladesh: Export-oriented RMG Factory List Sep 2019)|Arcadia Group (Arcadia August 2018 Facility List)"},{"id":"BD20190855GY8WP","name":"STYLECRAFT","address":"42/44 Chandona, , Joydevpur, Gazipur, 1700","country_code":"BD","lat":23.9901217,"lng":90.3814017,"country_name":"Bangladesh","contributors":"Arcadia Group (Arcadia August 2018 Facility List)|Uniqlo (Factories) [Public List] (Uniqlo March 30 2018 Facility List)|thesouth ('UNIQLO/Fast Retailing Core Sewing Factory List')"},{"id":"BD20190855NSWM2","name":"STARLIGHT SWEATERS LTD.","address":"Vogra, Post National University, , Gazipur, 1704","country_code":"BD","lat":23.9504063,"lng":90.380132,"country_name":"Bangladesh","contributors":"Agreement on Sustainable Garments and Textile (AGT) (42_2018)|Arcadia Group (Arcadia August 2018 Facility List)"},{"id":"BD201908576XZPY","name":"DOREEN APPARELS LTD.","address":"Dokkhin Panishal, Kashimpur, Gazipur, Dhaka, 1349","country_code":"BD","lat":23.9845353,"lng":90.3219053,"country_name":"Bangladesh","contributors":"Arcadia Group (Arcadia August 2018 Facility List)"},{"id":"BD20190858BV76T","name":"BASIC SHIRTS LIMITED","address":"Basic Tower, Majukhan, Harbaid, Gazipur Sadar, Gazipur, Dhaka, 1710","country_code":"BD","lat":23.9188323,"lng":90.4327414,"country_name":"Bangladesh","contributors":"Arcadia Group (Arcadia August 2018 Facility List)"},{"id":"BD2019085A3Q9T6","name":"ANOWARA DRESS MAKERS LTD.","address":"280/D,Baizid Bostami Road, Nasirabad I/A, Chittagong, 4209","country_code":"BD","lat":22.3638954,"lng":91.8257659,"country_name":"Bangladesh","contributors":"Arcadia Group (Arcadia August 2018 Facility List)"},{"id":"BD2019085ASD8VJ","name":"MIM DESIGN LTD","address":"Bashan Sarak Bazar, Vogra, Gazipur, Dhaka, 1704","country_code":"BD","lat":23.9718535,"lng":90.2576802,"country_name":"Bangladesh","contributors":"Next Plc (Next Plc)|Arcadia Group (Arcadia August 2018 Facility List)|Agreement on Sustainable Garments and Textile (AGT) (28_2018)|Agreement on Sustainable Garments and Textile (AGT) (30_2018)"},{"id":"BD2019085BA1WXE","name":"FASHION KNIT GARMENTS LTD","address":"4 Karnapara, Savar, Dhaka, 1340","country_code":"BD","lat":23.8261662,"lng":90.2559216,"country_name":"Bangladesh","contributors":"BRAC University (Mapped in Bangladesh: Export-oriented RMG Factory List Sep 2019)|Arcadia Group (Arcadia August 2018 Facility List)"},{"id":"BD2019085C63XSA","name":"SILKEN SEWING LTD","address":"Baniar Chala (Member Bari), Vobanipur, Gazipur,","country_code":"BD","lat":24.0167563,"lng":90.323056,"country_name":"Bangladesh","contributors":"BRAC University (Mapped in Bangladesh: Export-oriented RMG Factory List Sep 2019)|Arcadia Group (Arcadia August 2018 Facility List)|Debenhams [Public List] (Debenhams Facility List December 2018)|Shop Direct [Public List] (Shop Direct December 2018 Facility List)"},{"id":"BD2019085EY3WW6","name":"MONDOL FABRICS LTD","address":"Nayapara, Kashimpur, Gazipur, Dhaka,","country_code":"BD","lat":23.9887791,"lng":90.3209478,"country_name":"Bangladesh","contributors":"Arcadia Group (Arcadia August 2018 Facility List)|L. ten Cate (L. Ten Cate AGT Production location list 2018)|Agreement on Sustainable Garments and Textile (AGT) (52_2018)"},{"id":"BD2019085KGXY74","name":"AKH FASHIONS LTD","address":"AKH Tower, 133-134 Hemayetpur, Savar, Dhaka, 1340","country_code":"BD","lat":23.7941536,"lng":90.2736842,"country_name":"Bangladesh","contributors":"BRAC University (Mapped in Bangladesh: Export-oriented RMG Factory List Sep 2019)|Arcadia Group (Arcadia August 2018 Facility List)"},{"id":"BD2019085MGSZXR","name":"MALLICK FABRICS LIMITED","address":"Noyapara, Kashimpur, Konabari, Gazipur, 1346","country_code":"BD","lat":23.9887791,"lng":90.3209478,"country_name":"Bangladesh","contributors":"Arcadia Group (Arcadia August 2018 Facility List)"},{"id":"BD2019085MWJW41","name":"MAGPIE KNITWEAR LTD","address":"Plot No 141, Yarpur, Zirabo, Savar, Dhaka, 1341","country_code":"BD","lat":23.9101983,"lng":90.3172039,"country_name":"Bangladesh","contributors":"Agreement on Sustainable Garments and Textile (AGT) (24_18)|Arcadia Group (Arcadia August 2018 Facility List)|Agreement on Sustainable Garments and Textile (AGT) (59_2018)"},{"id":"BD2019085N897BQ","name":"GREENLAND GARMENTS LTD","address":"Unit 1 Hasna Tower, Kashimpur Road, Konabari, Dhaka,","country_code":"BD","lat":24.0086465,"lng":90.3203711,"country_name":"Bangladesh","contributors":"Arcadia Group (Arcadia August 2018 Facility List)|Agreement on Sustainable Garments and Textile (AGT) (35_2018)"},{"id":"BD2019085Q2KC0Q","name":"GOLDEN MOON (BD) LTD","address":"COMILLA EXPORT PROCESSING ZONE 3500 COMILLA BANGLADESH","country_code":"BD","lat":23.4438936,"lng":91.1845862,"country_name":"Bangladesh","contributors":"Clarks (Clarks (2018 Public List))"},{"id":"BD2019085QB9QMN","name":"A-ONE (BD) LTD","address":"Plot 114-120, Depz, Ganakbari, Ashulia, Dhaka, 12245","country_code":"BD","lat":23.9501366,"lng":90.2732621,"country_name":"Bangladesh","contributors":"Arcadia Group (Arcadia August 2018 Facility List)|Next Plc (Next Plc)"},{"id":"BD2019085QFZSRN","name":"FRANK APPARELS LTD.","address":"280/D,Baizid Bostami Road, Nasirabad I/A,Chittagong, Chittagong, 4209","country_code":"BD","lat":22.3638954,"lng":91.8257659,"country_name":"Bangladesh","contributors":"Arcadia Group (Arcadia August 2018 Facility List)"},{"id":"BD2019085RWGFH3","name":"INTL KNITWEAR &APP (IKAL)","address":"Beximco Industrial Park, Sarabo, Kashimpur, Dhaka, 1346","country_code":"BD","lat":23.9835229,"lng":90.2687537,"country_name":"Bangladesh","contributors":"Arcadia Group (Arcadia August 2018 Facility List)"},{"id":"BD2019085TSKMB4","name":"Young One - KSL","address":"Plot No. 9-14, 18-20, Sector No. 7, Chittagong Export Processing Zone, South Halishahar Chittagong Chittagong","country_code":"BD","lat":22.2931261,"lng":91.7780192,"country_name":"Bangladesh","contributors":"Patagonia (Patagonia Supplier List May 2019)"},{"id":"BD2019085XBQCMY","name":"FARSEEING KNIT COMPOSITE","address":"Faridpur, Talihati, Sreepur, Gazipur, 1703","country_code":"BD","lat":23.5423919,"lng":89.6308921,"country_name":"Bangladesh","contributors":"Arcadia Group (Arcadia August 2018 Facility List)"},{"id":"BD2019085XN9CDK","name":"L USINE FASHION 2(MAONA)","address":"Kawya, Chonnapara, Sreepur, Gazipur, Dhaka, 1740","country_code":"BD","lat":24.1996574,"lng":90.4809098,"country_name":"Bangladesh","contributors":"Arcadia Group (Arcadia August 2018 Facility List)"},{"id":"BD2019086157J76","name":"Cosmopolitian Industries (Pvt) Ltd","address":"Khejur Bagan, 1341, Dhaka, Bangladesh","country_code":"BD","lat":23.8905722,"lng":90.3219737,"country_name":"Bangladesh","contributors":"Agreement on Sustainable Garments and Textile (AGT) (16_2018)|C&A (C&A Supplier's facility list - April 2019)"},{"id":"BD20190861C2W8K","name":"VIRGO MH LIMITED","address":"43/2, Gazipura, P.O: BOF, Gazipur Sadar, Gazipur, N/A, Gazipur, Bangladesh","country_code":"BD","lat":23.9999405,"lng":90.4202724,"country_name":"Bangladesh","contributors":"Agreement on Sustainable Garments and Textile (AGT) (16_2018)|C&A (C&A Supplier's facility list - April 2019)"},{"id":"BD20190861S0ZNE","name":"LZ FASHION WEAR LTD.","address":"Dhaka Export Processing Zone, 1349, Dhaka, Bangladesh","country_code":"BD","lat":23.9490676,"lng":90.265874,"country_name":"Bangladesh","contributors":"Agreement on Sustainable Garments and Textile (AGT) (16_2018)|C&A (C&A Supplier's facility list - April 2019)"},{"id":"BD201908624693R","name":"Jamuna Fashion Wears Ltd","address":"Block - K, Rupnagar I/A, 1216, Dhaka, Bangladesh","country_code":"BD","lat":23.8110193,"lng":90.3582456,"country_name":"Bangladesh","contributors":"Agreement on Sustainable Garments and Textile (AGT) (16_2018)|C&A (C&A Supplier's facility list - April 2019)"},{"id":"BD20190862AZ7DZ","name":"Midland Knitwear Ltd / Liberty Knitwear Ltd","address":"Ramarbag, Kutubpur, 1420, Narayanganj, Bangladesh","country_code":"BD","lat":23.6237764,"lng":90.5000404,"country_name":"Bangladesh","contributors":"Agreement on Sustainable Garments and Textile (AGT) (16_2018)|C&A (C&A Supplier's facility list - April 2019)"},{"id":"BD20190862RE9TB","name":"ALIF TRADING CORPORATION","address":"Bangabandhu Road,, 1341, Dhaka, Bangladesh","country_code":"BD","lat":23.7266301,"lng":90.41208,"country_name":"Bangladesh","contributors":"Agreement on Sustainable Garments and Textile (AGT) (16_2018)|C&A (C&A Supplier's facility list - April 2019)"},{"id":"BD20190864TDM65","name":"Comfit Composite Knit Ltd - Unit 2","address":"Dewan Iddris Road, Kathgora, 1349, Dhaka, Bangladesh","country_code":"BD","lat":23.9164111,"lng":90.2977138,"country_name":"Bangladesh","contributors":"Agreement on Sustainable Garments and Textile (AGT) (16_2018)|C&A (C&A Supplier's facility list - April 2019)"},{"id":"BD201908654HT6T","name":"Islam Garments Ltd - Unit 2, Islam Garments Ltd Textile Division (Washing Unit)","address":"Zarun, Konabari, 1346, Gazipur, Bangladesh","country_code":"BD","lat":23.9979189,"lng":90.3207299,"country_name":"Bangladesh","contributors":"Agreement on Sustainable Garments and Textile (AGT) (16_2018)|C&A (C&A Supplier's facility list - April 2019)"},{"id":"BD20190866564K8","name":"B2B Excellence Ltd","address":"Mirzapur Purbara, Mouza, Mirzapur, Gazipur Sador, 1703, Gazipur, Bangladesh","country_code":"BD","lat":23.9999405,"lng":90.4202724,"country_name":"Bangladesh","contributors":"Agreement on Sustainable Garments and Textile (AGT) (16_2018)|C&A (C&A Supplier's facility list - April 2019)"},{"id":"BD201908666P2BF","name":"Designtex Knitwear Ltd.","address":"Beraiderchala, Sreepur, Gazipur, Bangladesh, 1740, Dhaka, Bangladesh","country_code":"BD","lat":24.1996574,"lng":90.4809098,"country_name":"Bangladesh","contributors":"Agreement on Sustainable Garments and Textile (AGT) (16_2018)|C&A (C&A Supplier's facility list - April 2019)"},{"id":"BD20190866QH94V","name":"Talisman - Unit 1","address":"Ganakbari, DEPZ Extension Area, 1349, Dhaka, Bangladesh","country_code":"BD","lat":23.9457108,"lng":90.2811491,"country_name":"Bangladesh","contributors":"Agreement on Sustainable Garments and Textile (AGT) (16_2018)|C&A (C&A Supplier's facility list - April 2019)"},{"id":"BD20190866XAMQR","name":"BTCFIL-Bangladesh Textile Chemical Fibre","address":"Plot No. 165-167, 3500, Comilla, Bangladesh","country_code":"BD","lat":23.4575667,"lng":91.1808996,"country_name":"Bangladesh","contributors":"Agreement on Sustainable Garments and Textile (AGT) (16_2018)|C&A (C&A Supplier's facility list - April 2019)"},{"id":"BD20190866ZDQDP","name":"Pioneer Knitwears (BD) Ltd","address":"Jamirdia, 2240, Mymensingh, Bangladesh","country_code":"BD","lat":24.2920231,"lng":90.3983829,"country_name":"Bangladesh","contributors":"Agreement on Sustainable Garments and Textile (AGT) (16_2018)|C&A (C&A Supplier's facility list - April 2019)"},{"id":"BD20190867JZS3M","name":"Al-Muslim Accessories Ltd","address":"Nischintapur, 1341, Dhaka ? 1341, Bangladesh","country_code":"BD","lat":23.9280474,"lng":90.3148533,"country_name":"Bangladesh","contributors":"Agreement on Sustainable Garments and Textile (AGT) (16_2018)|C&A (C&A Supplier's facility list - April 2019)"},{"id":"BD20190867VDJ12","name":"Global Merchants Ltd","address":"Gazipur, 1346, Gazipur, Bangladesh","country_code":"BD","lat":23.9999405,"lng":90.4202724,"country_name":"Bangladesh","contributors":"Agreement on Sustainable Garments and Textile (AGT) (16_2018)|C&A (C&A Supplier's facility list - April 2019)"},{"id":"BD201908684EBJQ","name":"Maxcom International (BD) Ltd","address":"Hemayetpur, 1340, Dhaka, Bangladesh","country_code":"BD","lat":23.7927863,"lng":90.2760903,"country_name":"Bangladesh","contributors":"Agreement on Sustainable Garments and Textile (AGT) (16_2018)|C&A (C&A Supplier's facility list - April 2019)"},{"id":"BD20190868K069A","name":"Tasniah Fabrics Ltd","address":"Nayapara, 1346, Gazipur, Bangladesh","country_code":"BD","lat":23.9887791,"lng":90.3209478,"country_name":"Bangladesh","contributors":"Agreement on Sustainable Garments and Textile (AGT) (16_2018)|C&A (C&A Supplier's facility list - April 2019)"},{"id":"BD20190868KHK65","name":"Euro Jeans Ltd","address":"Chowdhury Bari, 1704, Gazipur, Bangladesh","country_code":"BD","lat":23.9999405,"lng":90.4202724,"country_name":"Bangladesh","contributors":"Agreement on Sustainable Garments and Textile (AGT) (16_2018)|C&A (C&A Supplier's facility list - April 2019)"},{"id":"BD20190868RV1YT","name":"Youngones (Bangladesh) Ltd. - Unit-II/Stylecraft Ltd.","address":"Chandona, 1700, Gazipur, Bangladesh","country_code":"BD","lat":23.9901217,"lng":90.3814017,"country_name":"Bangladesh","contributors":"Agreement on Sustainable Garments and Textile (AGT) (16_2018)|C&A (C&A Supplier's facility list - April 2019)"},{"id":"BD20190869SMM2C","name":"Hamza Textiles Ltd. Including  Washing Unit","address":"Mymun Complex,Nayapara,Kashimpur,Gazipur,, 1349, Bangladesh, Bangladesh","country_code":"BD","lat":23.9864833,"lng":90.3220434,"country_name":"Bangladesh","contributors":"Agreement on Sustainable Garments and Textile (AGT) (16_2018)|C&A (C&A Supplier's facility list - April 2019)"},{"id":"BD20190869W7BYN","name":"Fakir Apparels Ltd","address":"BSCIC Industrial Estate, Enayetnagar, Fatullah, 1400, Narayangonj, Bangladesh","country_code":"BD","lat":23.6236868,"lng":90.4772186,"country_name":"Bangladesh","contributors":"Agreement on Sustainable Garments and Textile (AGT) (16_2018)|Agreement on Sustainable Garments and Textile (AGT) (45_2018)|C&A (C&A Supplier's facility list - April 2019)"},{"id":"BD20190869WANJP","name":"Belamy Textiles Ltd","address":"Khowaznagar, Azimpara, Karnafully Chittagong, Bangladesh., 4244, Chittagong, Bangladesh","country_code":"BD","lat":22.356851,"lng":91.7831819,"country_name":"Bangladesh","contributors":"Agreement on Sustainable Garments and Textile (AGT) (16_2018)|L. ten Cate (L. Ten Cate AGT Production location list 2018)|C&A (C&A Supplier's facility list - April 2019)|Agreement on Sustainable Garments and Textile (AGT) (52_2018)"},{"id":"BD20190869X302B","name":"Unique Washing & Dyeing Ltd","address":"Kalemeshar,K.B.Bazar, 1704, Gazipur, Bangladesh","country_code":"BD","lat":23.953676,"lng":90.3779667,"country_name":"Bangladesh","contributors":"Agreement on Sustainable Garments and Textile (AGT) (16_2018)|C&A (C&A Supplier's facility list - April 2019)"},{"id":"BD2019086A06M26","name":"Hop Yick (Bangladesh) Ltd - Unit 1","address":"DEPZ (West Zone), 1349, Dhaka, Bangladesh","country_code":"BD","lat":23.9501366,"lng":90.2732621,"country_name":"Bangladesh","contributors":"Agreement on Sustainable Garments and Textile (AGT) (16_2018)|C&A (C&A Supplier's facility list - April 2019)"},{"id":"BD2019086A3R46F","name":"Cotton Club (BD) Ltd/Cotton Clout (BD) Ltd.","address":"Jorun (South), Kashimpur, 1700, Gazipur, Bangladesh","country_code":"BD","lat":23.9845353,"lng":90.3219053,"country_name":"Bangladesh","contributors":"Agreement on Sustainable Garments and Textile (AGT) (16_2018)|C&A (C&A Supplier's facility list - April 2019)|Agreement on Sustainable Garments and Textile (AGT) (52_2018)|L. ten Cate (L. Ten Cate AGT Production location list 2018)|Next Plc (Next Plc)"},{"id":"BD2019086AEDQ0W","name":"Masco Industries Ltd.(Composite Knit Garments)","address":"221?223,, 1712, Gazipur, Bangladesh","country_code":"BD","lat":23.9999405,"lng":90.4202724,"country_name":"Bangladesh","contributors":"Agreement on Sustainable Garments and Textile (AGT) (16_2018)|Varner AS (Varner Brands facility list 2019)|C&A (C&A Supplier's facility list - April 2019)"},{"id":"BD2019086B5HXTR","name":"Hop Yick (Bangladesh) Ltd - Unit 6","address":"DEPZ (West Zone), 1349, Dhaka, Bangladesh","country_code":"BD","lat":23.9501366,"lng":90.2732621,"country_name":"Bangladesh","contributors":"Agreement on Sustainable Garments and Textile (AGT) (16_2018)|C&A (C&A Supplier's facility list - April 2019)"},{"id":"BD2019086BD7RKA","name":"Mark Wash & Dyeing Ltd.","address":"B.K.Bari, Taltoli, Mirzapur Bazar, Gazipur Sadar, Gazipur., 1749, Gazipur, Bangladesh","country_code":"BD","lat":24.1166236,"lng":90.378162,"country_name":"Bangladesh","contributors":"Agreement on Sustainable Garments and Textile (AGT) (16_2018)|C&A (C&A Supplier's facility list - April 2019)"},{"id":"BD2019086BF7PD4","name":"Mahmud Jeans Ltd / Mahmud Washing Plant Ltd","address":"Hortokitola, Chandra, 1750, Gazipur, Bangladesh","country_code":"BD","lat":24.0478735,"lng":90.2379523,"country_name":"Bangladesh","contributors":"Agreement on Sustainable Garments and Textile (AGT) (16_2018)|C&A (C&A Supplier's facility list - April 2019)"},{"id":"BD2019086BGDNNJ","name":"Dazzling Dresses Ltd","address":"Ismail Plaza, Shah Kabir Mazar Road, 1230, Dhaka, Bangladesh","country_code":"BD","lat":23.869195,"lng":90.4198224,"country_name":"Bangladesh","contributors":"Agreement on Sustainable Garments and Textile (AGT) (16_2018)|C&A (C&A Supplier's facility list - April 2019)"},{"id":"BD2019086BH6R5Z","name":"Pacific Jeans Ltd.","address":"Chittagong Export Processing Zone, 4223, Chittagong, Bangladesh","country_code":"BD","lat":22.2877058,"lng":91.7750588,"country_name":"Bangladesh","contributors":"Agreement on Sustainable Garments and Textile (AGT) (16_2018)|Tesco [Public List] (Tesco March 2018 Facility List)|C&A (C&A Supplier's facility list - April 2019)"},{"id":"BD2019086BWNDS2","name":"Epyllion Knitwears Ltd","address":"Road No-6, Section-7, 1216, Dhaka, Bangladesh","country_code":"BD","lat":23.8164793,"lng":90.3641105,"country_name":"Bangladesh","contributors":"Agreement on Sustainable Garments and Textile (AGT) (16_2018)|C&A (C&A Supplier's facility list - April 2019)"},{"id":"BD2019086C8QSRW","name":"Amtranet Limited","address":"Savar, 1340, Dhaka, Bangladesh","country_code":"BD","lat":23.810332,"lng":90.4125181,"country_name":"Bangladesh","contributors":"Agreement on Sustainable Garments and Textile (AGT) (16_2018)|C&A (C&A Supplier's facility list - April 2019)"},{"id":"BD2019086C9MDA0","name":"Reza Fashions Ltd","address":"Goart, Baghbari Ashuliya, 0, Dhaka, Bangladesh","country_code":"BD","lat":23.7138468,"lng":90.4317436,"country_name":"Bangladesh","contributors":"Agreement on Sustainable Garments and Textile (AGT) (16_2018)|C&A (C&A Supplier's facility list - April 2019)"},{"id":"BD2019086CM5RWS","name":"Al-Islam Textiles Ltd","address":"Karnapara, 1340, Dhaka, Bangladesh","country_code":"BD","lat":23.8234915,"lng":90.2565774,"country_name":"Bangladesh","contributors":"Agreement on Sustainable Garments and Textile (AGT) (16_2018)|C&A (C&A Supplier's facility list - April 2019)"},{"id":"BD2019086DCN2ZF","name":"A One Polar Ltd","address":"Vulta, 1462, Narayangonj, Bangladesh","country_code":"BD","lat":23.7838302,"lng":90.5630177,"country_name":"Bangladesh","contributors":"Agreement on Sustainable Garments and Textile (AGT) (16_2018)|C&A (C&A Supplier's facility list - April 2019)"},{"id":"BD2019086DJNYXF","name":"SF Jeans Ltd","address":"Karol Shurichala, Mouchak, Kaliakoir, 1750, Gazipur, Bangladesh","country_code":"BD","lat":24.0569842,"lng":90.2650831,"country_name":"Bangladesh","contributors":"Agreement on Sustainable Garments and Textile (AGT) (16_2018)|C&A (C&A Supplier's facility list - April 2019)"},{"id":"BD2019086DTSY86","name":"A TO Z Printing Ltd.","address":"221/A  Tejgaon Industrial Area, 1208, Dhaka, Bangladesh","country_code":"BD","lat":23.7657287,"lng":90.4054498,"country_name":"Bangladesh","contributors":"Agreement on Sustainable Garments and Textile (AGT) (16_2018)|C&A (C&A Supplier's facility list - April 2019)"},{"id":"BD2019086DYNYCA","name":"Comfit Composite Knit Ltd - Unit 1","address":"Gorai, Mirzapur, 1941, Tangail, Bangladesh","country_code":"BD","lat":24.099259,"lng":90.1612029,"country_name":"Bangladesh","contributors":"Agreement on Sustainable Garments and Textile (AGT) (16_2018)|Next Plc (Next Plc)|C&A (C&A Supplier's facility list - April 2019)"},{"id":"BD2019086E6Y0Q9","name":"Concept Knitting Ltd.","address":"Kakil, Sataish, Tilergati, Sataish Bazar, 1712, Tongi, Gazipur, Bangladesh","country_code":"BD","lat":23.9157409,"lng":90.3704486,"country_name":"Bangladesh","contributors":"Agreement on Sustainable Garments and Textile (AGT) (16_2018)|C&A (C&A Supplier's facility list - April 2019)"},{"id":"BD2019086E94K1F","name":"Labonno Screen Print Limited","address":"Norshinghpur, 1212, Dhaka, Bangladesh","country_code":"BD","lat":23.7730885,"lng":90.4205739,"country_name":"Bangladesh","contributors":"Agreement on Sustainable Garments and Textile (AGT) (16_2018)|C&A (C&A Supplier's facility list - April 2019)"},{"id":"BD2019086EVEJ1A","name":"Evitex Apparels Limited","address":"shirichala, bhabnipur, Jaydebpur, Gazipur-1704, Bangladesh, 1704, Gazipur, Bangladesh","country_code":"BD","lat":24.1752701,"lng":90.4224493,"country_name":"Bangladesh","contributors":"Agreement on Sustainable Garments and Textile (AGT) (16_2018)|Debenhams [Public List] (Debenhams Facility List December 2018)|C&A (C&A Supplier's facility list - April 2019)"},{"id":"BD2019086EWFN3H","name":"Bando Design Ltd.","address":"Purbo Narshinghapur, Earpur Union Parishad Road, Ashulia, Dhaka, 1341, Dhaka, Bangladesh","country_code":"BD","lat":23.931745,"lng":90.307703,"country_name":"Bangladesh","contributors":"Agreement on Sustainable Garments and Textile (AGT) (16_2018)|Debenhams [Public List] (Debenhams Facility List December 2018)|C&A (C&A Supplier's facility list - April 2019)"},{"id":"BD2019086F9VXCW","name":"Flamingo fashion ltd.","address":"Sardagonj, Kashimpur,Gazipur,, 1346, Dhaka, Bangladesh","country_code":"BD","lat":23.9703785,"lng":90.294534,"country_name":"Bangladesh","contributors":"Agreement on Sustainable Garments and Textile (AGT) (16_2018)|C&A (C&A Supplier's facility list - April 2019)"},{"id":"BD2019086G4FAXA","name":"Neo Fashion Vertex Wear Dress World Ltd","address":"Varari, Rajfulbaria, Tetuljhora, Main Street, 1340, Dhaka, Bangladesh","country_code":"BD","lat":23.8132743,"lng":90.2606145,"country_name":"Bangladesh","contributors":"Agreement on Sustainable Garments and Textile (AGT) (16_2018)|C&A (C&A Supplier's facility list - April 2019)"},{"id":"BD2019086GBRK17","name":"China Zhonghe Garment Company Ltd.","address":"Hijolhati, Baroipara, Kaliakoir, Gazipur, 1750, Kaliakoir, Bangladesh","country_code":"BD","lat":24.0263105,"lng":90.2420576,"country_name":"Bangladesh","contributors":"Agreement on Sustainable Garments and Textile (AGT) (16_2018)|C&A (C&A Supplier's facility list - April 2019)"},{"id":"BD2019086GMFQR2","name":"Vision Composite Kinte Ltd, Vision Garments, Vision Washing","address":"B-47, Purbo Rajashan,, 1340, Savar, Dhaka, Bangladesh","country_code":"BD","lat":23.8499332,"lng":90.2858859,"country_name":"Bangladesh","contributors":"Agreement on Sustainable Garments and Textile (AGT) (16_2018)|C&A (C&A Supplier's facility list - April 2019)"},{"id":"BD2019086GTKP8V","name":"Comfit Composite Knit Ltd - Unit 3","address":"Vannara Road, 1751, Gazipur, Bangladesh","country_code":"BD","lat":24.0429338,"lng":90.2998722,"country_name":"Bangladesh","contributors":"Agreement on Sustainable Garments and Textile (AGT) (16_2018)|C&A (C&A Supplier's facility list - April 2019)"},{"id":"BD2019086GVNT2W","name":"Bangladesh Export Import Co. Ltd","address":"Beximco Industrial Park, 1346, Gazipur, Bangladesh","country_code":"BD","lat":23.9835229,"lng":90.2687537,"country_name":"Bangladesh","contributors":"Agreement on Sustainable Garments and Textile (AGT) (16_2018)|C&A (C&A Supplier's facility list - April 2019)"},{"id":"BD2019086H3BZ97","name":"Comptex Bangladesh Ltd","address":"Vulta,Rupganj,Narayanganj, 1462, Narayanganj, Bangladesh","country_code":"BD","lat":23.7838302,"lng":90.5630177,"country_name":"Bangladesh","contributors":"Agreement on Sustainable Garments and Textile (AGT) (16_2018)|C&A (C&A Supplier's facility list - April 2019)"},{"id":"BD2019086H73BEM","name":"Best Shirts Ltd","address":"Kunia, P.O. National Univaersity, 1704, Gazipur, Bangladesh","country_code":"BD","lat":23.9504063,"lng":90.380132,"country_name":"Bangladesh","contributors":"Agreement on Sustainable Garments and Textile (AGT) (16_2018)|C&A (C&A Supplier's facility list - April 2019)"},{"id":"BD2019086J0S8TD","name":"Newage Garments Ltd / Keilock Newage Bangladesh Ltd / Newage Apparels Ltd (Woven","address":"Nischintopur, Ashulia, 1341, Dhaka, Bangladesh","country_code":"BD","lat":23.9098356,"lng":90.3204211,"country_name":"Bangladesh","contributors":"Agreement on Sustainable Garments and Textile (AGT) (16_2018)|C&A (C&A Supplier's facility list - April 2019)"},{"id":"BD2019086J1K7FW","name":"Jay Jay Mills (Bangladesh) Private Limited","address":"Plot Nos: 2-4 & 9-11,, 4223, Chittagong, Bangladesh","country_code":"BD","lat":22.3001682,"lng":91.7725626,"country_name":"Bangladesh","contributors":"Agreement on Sustainable Garments and Textile (AGT) (16_2018)|C&A (C&A Supplier's facility list - April 2019)"},{"id":"BD2019086J5MAB0","name":"Newage Textiles Ltd","address":"Gurai Mominnnagar, Mirzapur, 1941, Tangail, Bangladesh","country_code":"BD","lat":24.099259,"lng":90.1612029,"country_name":"Bangladesh","contributors":"Agreement on Sustainable Garments and Textile (AGT) (16_2018)|C&A (C&A Supplier's facility list - April 2019)"},{"id":"BD2019086J66MTC","name":"Epic Garments Manufacturing Co. Ltd","address":"Adamjee, 1431, Narayangonj, Bangladesh","country_code":"BD","lat":23.6761219,"lng":90.5234193,"country_name":"Bangladesh","contributors":"Agreement on Sustainable Garments and Textile (AGT) (16_2018)|C&A (C&A Supplier's facility list - April 2019)"},{"id":"BD2019086JQAWN4","name":"Orix Washing Project","address":"West Ranavola, Siraj Market,, 1230, Dhaka, Bangladesh","country_code":"BD","lat":23.8859412,"lng":90.3865195,"country_name":"Bangladesh","contributors":"Agreement on Sustainable Garments and Textile (AGT) (16_2018)|C&A (C&A Supplier's facility list - April 2019)"},{"id":"BD2019086JRPEDV","name":"MNS GARMENTS PRINTING-2","address":"Hazirpukur, Choydana, 1704, Gazipur, Bangladesh","country_code":"BD","lat":23.9999405,"lng":90.4202724,"country_name":"Bangladesh","contributors":"Agreement on Sustainable Garments and Textile (AGT) (16_2018)|C&A (C&A Supplier's facility list - April 2019)"},{"id":"BD2019086K98QHC","name":"Hop Yick (Bangladesh) Ltd - Unit 3","address":"DEPZ (West Zone), 1349, Dhaka, Bangladesh","country_code":"BD","lat":23.9501366,"lng":90.2732621,"country_name":"Bangladesh","contributors":"Agreement on Sustainable Garments and Textile (AGT) (16_2018)|C&A (C&A Supplier's facility list - April 2019)"},{"id":"BD2019086KEGVKZ","name":"Shanta Expression Ltd","address":"Mudafa, Badam Road, Tongi, 1712, Gazipur, Bangladesh","country_code":"BD","lat":23.902794,"lng":90.3711483,"country_name":"Bangladesh","contributors":"Agreement on Sustainable Garments and Textile (AGT) (16_2018)|C&A (C&A Supplier's facility list - April 2019)"},{"id":"BD2019086M0H99Q","name":"Anupam Hosiery Ind. (Pvt) Ltd","address":"Vulta Rupgonj, Narayangonj, 1462, Narayangonj, Bangladesh","country_code":"BD","lat":23.7838302,"lng":90.5630177,"country_name":"Bangladesh","contributors":"Agreement on Sustainable Garments and Textile (AGT) (16_2018)|C&A (C&A Supplier's facility list - April 2019)"},{"id":"BD2019086MSX0V5","name":"Redpoint Jackets Ltd","address":"Dhake Export Processing Zone, 000, Dhaka, Bangladesh","country_code":"BD","lat":23.7442469,"lng":90.3843981,"country_name":"Bangladesh","contributors":"Agreement on Sustainable Garments and Textile (AGT) (16_2018)|C&A (C&A Supplier's facility list - April 2019)"},{"id":"BD2019086MYDA09","name":"SF Fashion Wears Ltd, S. F. Apparels Ltd, S. F. Washing Ltd","address":"Nayabari, Kanchpur, Sonargaon, 1430, Narayangonj, Bangladesh","country_code":"BD","lat":23.6978888,"lng":90.5328281,"country_name":"Bangladesh","contributors":"Agreement on Sustainable Garments and Textile (AGT) (16_2018)|C&A (C&A Supplier's facility list - April 2019)"},{"id":"BD2019086MYSWFP","name":"ASL Aliiance Stitches Ltd","address":"DEPZ (Old Zone), Ganakbari, 1349, Dhaka, Bangladesh","country_code":"BD","lat":23.9501366,"lng":90.2732621,"country_name":"Bangladesh","contributors":"Agreement on Sustainable Garments and Textile (AGT) (16_2018)|C&A (C&A Supplier's facility list - April 2019)"},{"id":"BD2019086N0AXQK","name":"T-Design Knitwear Ltd","address":"Boherarchala, Sreepur, Gazipur, Bangladesh., 1740, Gazipur, Bangladesh","country_code":"BD","lat":24.1996574,"lng":90.4809098,"country_name":"Bangladesh","contributors":"Agreement on Sustainable Garments and Textile (AGT) (16_2018)|C&A (C&A Supplier's facility list - April 2019)"},{"id":"BD2019086N0YN19","name":"Libas Textiles Ltd","address":"Mouchak, 1751, Gazipur, Bangladesh","country_code":"BD","lat":24.0245634,"lng":90.2856307,"country_name":"Bangladesh","contributors":"Agreement on Sustainable Garments and Textile (AGT) (16_2018)|C&A (C&A Supplier's facility list - April 2019)"},{"id":"BD2019086N2PDA4","name":"Newtex Design Ltd(Impress-Newtex Composite Textiles Ltd)","address":"Gorai Industrial Area,, 1942, Tangail, Bangladesh","country_code":"BD","lat":24.099259,"lng":90.1612029,"country_name":"Bangladesh","contributors":"Agreement on Sustainable Garments and Textile (AGT) (16_2018)|C&A (C&A Supplier's facility list - April 2019)"},{"id":"BD2019086NE691K","name":"Dird Washing Plant Ltd.","address":"Nagarchar,Rajfulbaria, 1347, Dhaka, Bangladesh","country_code":"BD","lat":23.8067271,"lng":90.250673,"country_name":"Bangladesh","contributors":"Agreement on Sustainable Garments and Textile (AGT) (16_2018)|C&A (C&A Supplier's facility list - April 2019)"},{"id":"BD2019086P3CFJ6","name":"Actor Sporting Ltd.","address":"DEPZ Ganakbari, 1349, Dhaka, Bangladesh","country_code":"BD","lat":23.9501366,"lng":90.2732621,"country_name":"Bangladesh","contributors":"Agreement on Sustainable Garments and Textile (AGT) (16_2018)|C&A (C&A Supplier's facility list - April 2019)"},{"id":"BD2019086P4K5P8","name":"Cotton Clothing (BD) Ltd","address":"Kazi Tower, Sataish Road, Gazipura, Tongi, 1712, Gazipur, Bangladesh","country_code":"BD","lat":23.9210073,"lng":90.3902971,"country_name":"Bangladesh","contributors":"Agreement on Sustainable Garments and Textile (AGT) (16_2018)|C&A (C&A Supplier's facility list - April 2019)"},{"id":"BD2019086P5FWAG","name":"Polo Composite Knit Industry Ltd","address":"Singair, 1340, Dhaka, Bangladesh","country_code":"BD","lat":23.8152844,"lng":90.1342888,"country_name":"Bangladesh","contributors":"Agreement on Sustainable Garments and Textile (AGT) (16_2018)|C&A (C&A Supplier's facility list - April 2019)"},{"id":"BD2019086PEFEZ0","name":"Sungkwang apparels ltd","address":"Plot No: 1384-86, 1420-21, Vogra, Bason, Sarak,Chandona, 1704, Dhaka, Bangladesh","country_code":"BD","lat":23.9772783,"lng":90.3805947,"country_name":"Bangladesh","contributors":"Agreement on Sustainable Garments and Textile (AGT) (16_2018)|Tesco [Public List] (Tesco March 2018 Facility List)|C&A (C&A Supplier's facility list - April 2019)|Agreement on Sustainable Garments and Textile (AGT) (28_2018)"},{"id":"BD2019086PHQMG2","name":"SF Denim Apparels Ltd","address":"Tejgaon I/A, 1208, Dhaka, Bangladesh","country_code":"BD","lat":23.7553502,"lng":90.4009704,"country_name":"Bangladesh","contributors":"Agreement on Sustainable Garments and Textile (AGT) (16_2018)|C&A (C&A Supplier's facility list - April 2019)"},{"id":"BD2019086Q7SQGY","name":"DIPTA APPARELS LTD","address":"South Shyampur Hemayetpur, 1340, Dhaka, Bangladesh","country_code":"BD","lat":23.7775102,"lng":90.2609038,"country_name":"Bangladesh","contributors":"Agreement on Sustainable Garments and Textile (AGT) (16_2018)|C&A (C&A Supplier's facility list - April 2019)"},{"id":"BD2019086QGHYVH","name":"Divine Intimates Ltd","address":"Khowaznagar, Azimpara, Karnafuli, Chittagong, Bangladesh., 4224, Chittagong, Bangladesh","country_code":"BD","lat":22.356851,"lng":91.7831819,"country_name":"Bangladesh","contributors":"Agreement on Sustainable Garments and Textile (AGT) (16_2018)|C&A (C&A Supplier's facility list - April 2019)"},{"id":"BD2019086QWXH56","name":"Hop Yick (Bangladesh) Ltd - Unit 5","address":"DEPZ (West Zone), Ganakbari, 1349, Dhaka, Bangladesh","country_code":"BD","lat":23.9501366,"lng":90.2732621,"country_name":"Bangladesh","contributors":"Agreement on Sustainable Garments and Textile (AGT) (16_2018)|C&A (C&A Supplier's facility list - April 2019)"},{"id":"BD2019086R11Z3W","name":"BHIS Apparels Ltd","address":"Datta Para, Hossain Market, 1712, Gazipur, Bangladesh","country_code":"BD","lat":23.9131212,"lng":90.3958216,"country_name":"Bangladesh","contributors":"Agreement on Sustainable Garments and Textile (AGT) (16_2018)|C&A (C&A Supplier's facility list - April 2019)"},{"id":"BD2019086R3WYRD","name":"Paddock's Jeans Ltd","address":"Dhaka Export Processing Zone Ganakbari, 1111, Dhaka, Bangladesh","country_code":"BD","lat":23.9501366,"lng":90.2732621,"country_name":"Bangladesh","contributors":"Agreement on Sustainable Garments and Textile (AGT) (16_2018)|C&A (C&A Supplier's facility list - April 2019)"},{"id":"BD2019086R74H8W","name":"Posh Garments Ltd","address":"Tejgaon Industrial Area, 1208, Dhaka, Bangladesh","country_code":"BD","lat":23.7657287,"lng":90.4054498,"country_name":"Bangladesh","contributors":"Agreement on Sustainable Garments and Textile (AGT) (16_2018)|C&A (C&A Supplier's facility list - April 2019)"},{"id":"BD2019086R8FKTW","name":"Epyllion Knitex Ltd & Epyllion Style Ltd","address":"Jangalia Para, Bangla Bazar, 1703, Gazipur, Dhaka, Bangladesh","country_code":"BD","lat":23.9999405,"lng":90.4202724,"country_name":"Bangladesh","contributors":"Agreement on Sustainable Garments and Textile (AGT) (16_2018)|C&A (C&A Supplier's facility list - April 2019)"},{"id":"BD2019086R9PTM5","name":"Blue Creations Limited","address":"387/1, Zita More, Kashimpur, Gazipur, 1346, Gazipur, Bangladesh","country_code":"BD","lat":23.9845353,"lng":90.3219053,"country_name":"Bangladesh","contributors":"Gap Inc (Gap Inc April 2019 - Factory List)|C&A (C&A Supplier's facility list - April 2019)|Agreement on Sustainable Garments and Textile (AGT) (16_2018)"},{"id":"BD2019086S4K77Y","name":"AKM Knit Wear, Pacific Blue Jeans Wear, Al-Muslim Washing Ltd & Accessories Ltd.","address":"Gedda, Karnapara, Ulail, 1340, Dhaka, Bangladesh","country_code":"BD","lat":23.8261662,"lng":90.2559216,"country_name":"Bangladesh","contributors":"Agreement on Sustainable Garments and Textile (AGT) (16_2018)|C&A (C&A Supplier's facility list - April 2019)"},{"id":"BD2019086S7MTAR","name":"Panwin Designs Limited","address":"Baniarchala, Bagher Bazar, Bhabanipur, 1700, Gazipur, Bangladesh","country_code":"BD","lat":24.1701145,"lng":90.4195876,"country_name":"Bangladesh","contributors":"Agreement on Sustainable Garments and Textile (AGT) (16_2018)|C&A (C&A Supplier's facility list - April 2019)"},{"id":"BD2019086SKJ9Y5","name":"Oxford Colors Ltd. / S.Suhi Industrial Park Ltd","address":"Hazi Mir Liyaqot Ali Road, Zamgora, Ashulia, Savar, Dhaka, 1349, Dhaka, Bangladesh","country_code":"BD","lat":23.9003712,"lng":90.3272255,"country_name":"Bangladesh","contributors":"Agreement on Sustainable Garments and Textile (AGT) (16_2018)|C&A (C&A Supplier's facility list - April 2019)"},{"id":"BD2019086STGRWQ","name":"Kaniz Garments Ltd","address":"Tejgaon Industrial Area, 1208, Bangladesh, Bangladesh","country_code":"BD","lat":23.7657287,"lng":90.4054498,"country_name":"Bangladesh","contributors":"Agreement on Sustainable Garments and Textile (AGT) (16_2018)|C&A (C&A Supplier's facility list - April 2019)"},{"id":"BD2019086SWNT6A","name":"Designtex Sweaters Ltd","address":"Konabari, 1346, Gazipur, Bangladesh","country_code":"BD","lat":24.0112973,"lng":90.3219053,"country_name":"Bangladesh","contributors":"Agreement on Sustainable Garments and Textile (AGT) (16_2018)|C&A (C&A Supplier's facility list - April 2019)"},{"id":"BD2019086TD3MTR","name":"Modele De Capital Ind. Ltd","address":"Talla Road, Khapur, 1400, Narayangonj, Bangladesh","country_code":"BD","lat":23.6315743,"lng":90.4974359,"country_name":"Bangladesh","contributors":"Agreement on Sustainable Garments and Textile (AGT) (16_2018)|C&A (C&A Supplier's facility list - April 2019)"},{"id":"BD2019086TGJQ0K","name":"ANAM Clothing Limited.","address":"110, Khortoil, Sataish Road,Gazipura, 1712, Gazipur, Bangladesh","country_code":"BD","lat":23.922294,"lng":90.3831766,"country_name":"Bangladesh","contributors":"Agreement on Sustainable Garments and Textile (AGT) (16_2018)|C&A (C&A Supplier's facility list - April 2019)"},