[{"id":"AR201908553Z0N8","name":"TOCCALINO CARLOS JAVIER Y TOCCALINO DANIEL ANTONIO S.H.","address":"IRIBARNE 960 - LUJAN, BUENOS AIRES, ARGENTINA LUJAN BUENOS AIRES","country_code":"AR","lat":-34.5856541,"lng":-59.1083894,"country_name":"Argentina","contributors":"Nike [Public List] (Nike November 2018 Facility List)"},{"id":"AR20190856ZD6RW","name":"ANDBRAVA SRL","address":"SARGENTO CABRAL  - PASAJE 62, Nº 1071 BUENOS AIRES  BUENOS AIRES  Pasaje 62, Nº 1071","country_code":"AR","lat":-34.6036844,"lng":-58.3815591,"country_name":"Argentina","contributors":"Nike [Public List] (Nike November 2018 Facility List)"},{"id":"AR20190858G1BP6","name":"DER WILL S.A.","address":"ESTEBAN ECHEVERRIA 3250-DON TORCUATO BUENOS AIRES BUENOS AIRES 1611","country_code":"AR","lat":-34.4938049,"lng":-58.6272715,"country_name":"Argentina","contributors":"Nike [Public List] (Nike November 2018 Facility List)|adidas (adidas)"},{"id":"AR20190858MZTRS","name":"R. A. INTERTRADING S. A.","address":"JOSE IGNACIO RUCCI 3951 CAPITAL FEDERAL BUENOS AIRES C1439FVQ","country_code":"AR","lat":-34.6764005,"lng":-58.4808136,"country_name":"Argentina","contributors":"Nike [Public List] (Nike November 2018 Facility List)"},{"id":"AR2019085FRK8XB","name":"TECNOSPORT LATINOAMERICANA S.A.","address":"AVENIDA FLANDES Nº 1272  PARQUE INDUSTRIAL VILLA FLANDRIA LUJAN BUENOS AIRES 0","country_code":"AR","lat":-34.5887259,"lng":-59.1826349,"country_name":"Argentina","contributors":"Nike [Public List] (Nike November 2018 Facility List)"},{"id":"AR2019085FYVC55","name":"COOPERATIVA TEXTIL SEUCA LTDA.","address":"LAS HERAS 513 GUAYMALLEN MENDOZA","country_code":"AR","lat":-32.8930597,"lng":-68.8184642,"country_name":"Argentina","contributors":"Nike [Public List] (Nike November 2018 Facility List)"},{"id":"AR2019085H68ERH","name":"SUOLA SA","address":"AV FRANCISCO RABANAL 3220 BUENOS AIRES BUENOS AIRES 1437","country_code":"AR","lat":-34.6656267,"lng":-58.4388679,"country_name":"Argentina","contributors":"Nike [Public List] (Nike November 2018 Facility List)"},{"id":"AR2019085KAC0K8","name":"SEDAMIL S.A. C.I.","address":"AV. DORREGO 737 BUENOS AIRES BUENOS AIRES C1414CKC","country_code":"AR","lat":-34.5925522,"lng":-58.4483405,"country_name":"Argentina","contributors":"Nike [Public List] (Nike November 2018 Facility List)"},{"id":"AR2019085NHNK3X","name":"COOPERSHOES - COOPERATIVA DE TRABALHO E INDUSTRIA DE CALÇADOS JOANETENSE LTDA (LAS FLORES)","address":"CALLE EL MOLINO LAS FLORES ARGENTINA 7200","country_code":"AR","lat":-36.0141576,"lng":-59.0992986,"country_name":"Argentina","contributors":"Nike [Public List] (Nike November 2018 Facility List)"},{"id":"AR2019085P30KPE","name":"SAN CARLOS TRADING S.A.","address":"SPURR 613 AVELLANEDA BUENOS AIRES CP 1870","country_code":"AR","lat":-34.6779008,"lng":-58.3586613,"country_name":"Argentina","contributors":"Nike [Public List] (Nike November 2018 Facility List)"},{"id":"AR2019085P6MWSH","name":"TEXTIL SPORT TECH S.A.","address":"ITUZAINGO 1001 LUJAN BUENOS AIRES 6700","country_code":"AR","lat":-34.5713423,"lng":-59.109673,"country_name":"Argentina","contributors":"Nike [Public List] (Nike November 2018 Facility List)"},{"id":"AR2019085VQ38T3","name":"TEXTIL ROCLAN S.A.","address":"TRES ARROYOS 564 CAPITAL FEDERAL BUENOS AIRES 1416","country_code":"AR","lat":-34.6034339,"lng":-58.4502764,"country_name":"Argentina","contributors":"Nike [Public List] (Nike November 2018 Facility List)"},{"id":"AR2019085WREEC8","name":"TEXTEL SPORT TECH S.A.","address":"ITURRASPE Nº 920, VILLA LYNCH SAN MARTIN BUENOS AIRES","country_code":"AR","lat":-34.5891346,"lng":-58.5318022,"country_name":"Argentina","contributors":"Nike [Public List] (Nike November 2018 Facility List)"},{"id":"AR2019085WVET2D","name":"DASS ELDORADO SRL","address":"ALBERTO BEJAR BARRIOS, 407 ELDORADO MISIONES 30-71008366-1","country_code":"AR","lat":-26.4105281,"lng":-54.6215368,"country_name":"Argentina","contributors":"Nike [Public List] (Nike November 2018 Facility List)"},{"id":"AR2019098QVW5FJ","name":"R.A. Intertrading S.A.","address":"Jose I. Rucci (ex Pilar) 3951 / 55,Villa Lugano,Ciudad Autonoma de Buenoas Aires,Argentina","country_code":"AR","lat":-34.6757466,"lng":-58.4814481,"country_name":"Argentina","contributors":"Fair Factories Clearinghouse (FFC FactoryList Apr 19)|adidas (adidas)"},{"id":"AR2019143JEJY4V","name":"Will Der S.A.","address":"Cnel. Manuel Rosetti 3464  Olivos Partido de Vicente Lopez 1636 Buenos Aires Argentina","country_code":"AR","lat":-34.5146788,"lng":-58.5150883,"country_name":"Argentina","contributors":"adidas (adidas)"},{"id":"AR2019143JX59GM","name":"Khamsin S.A.","address":"Florentino Ameghino 1280 Florida  Vicente Lopez 1602 Buenos Aires Argentina","country_code":"AR","lat":-34.5410453,"lng":-58.51383,"country_name":"Argentina","contributors":"adidas (adidas)"},{"id":"AR2019143K2Z3JG","name":"Calcotrans S.R.L.","address":"EC Villegas 2288 ( calle 47 ) Villa Maipu - San Martin - B 1650 LLT  Buenos Aires 0 Buenos Aires Argentina","country_code":"AR","lat":-34.5641882,"lng":-58.526509,"country_name":"Argentina","contributors":"adidas (adidas)"},{"id":"AR2019143N594S7","name":"Romi S.R.L.","address":"Tres Arroyos 329   Haedo B1706FWC Buenos Aires Argentina","country_code":"AR","lat":-34.6427785,"lng":-58.6116176,"country_name":"Argentina","contributors":"adidas (adidas)"},{"id":"AR2019143T9K5BD","name":"DG2 Productos Textiles SRL","address":"Guiraldes 5651, San Martin   San Martín 1650 Buenos Aires Argentina","country_code":"AR","lat":-34.5757521,"lng":-58.5370965,"country_name":"Argentina","contributors":"adidas (adidas)"},{"id":"AR2019143V48GXV","name":"Will Der S.A. (Las Flores)","address":"Ruta 3 Km 186.5  Parque Industrial  Las Flores 7200 Buenos Aires Argentina","country_code":"AR","lat":-34.6625203,"lng":-58.5183566,"country_name":"Argentina","contributors":"adidas (adidas)"},{"id":"AR2019143XC6Q0D","name":"R.A. Intertrading S.A. (Aquino)","address":"Aquino 6077   buenos aires  1439 Ciudad Autonoma de Buenos Aires Argentina","country_code":"AR","lat":-34.6775276,"lng":-58.4806673,"country_name":"Argentina","contributors":"adidas (adidas)"},{"id":"AR2019143XMYMFS","name":"Dass Suarez S.a.","address":"Olavarria, 636   Coronel Suárez 7540 Buenos Aires Argentina","country_code":"AR","lat":-37.4752071,"lng":-61.9225427,"country_name":"Argentina","contributors":"adidas (adidas)"},{"id":"BA2019085PD3EFZ","name":"SPORTEK","address":"MILOSA OBLICA KOTOR VAROS BANJA LUKA 78220","country_code":"BA","lat":44.6183993,"lng":17.3712258,"country_name":"Bosnia and Herzegovina","contributors":"Nike [Public List] (Nike November 2018 Facility List)"},{"id":"BD201909395JYQK","name":"DEWHIRST SHANTA","address":"PLOT #156+77 DHAKA EPZ DHAKA BANGLADESH","country_code":"BD","lat":23.9501366,"lng":90.2732621,"country_name":"Bangladesh","contributors":"Nike [Public List] (Nike November 2018 Facility List)"},{"id":"BD2019096YG42E3","name":"Youngone (CEPZ) Limited","address":"Plot #11-16,Sector 2,Chittagong","country_code":"BD","lat":22.2878446,"lng":91.7789375,"country_name":"Bangladesh","contributors":"Amer Sports (Amer Sports)|Fair Factories Clearinghouse (FFC FactoryList Apr 19)|lululemon [Public List] (lululemon March 2018 Facility List)|adidas (adidas)"},{"id":"BD2019098DNAAVM","name":"Eco-Couture Ltd.","address":"Mogor Khal, Bypass Road,Vogra, Joydebpur,Joydebpur,Dhaka,Bangladesh","country_code":"BD","lat":23.9999405,"lng":90.4202724,"country_name":"Bangladesh","contributors":"Fair Factories Clearinghouse (FFC FactoryList Apr 19)|adidas (adidas)"},{"id":"BD2019098NG536P","name":"Karnaphuli Shoes Industries Limited (Garment Unit)","address":"Korean Export Processing Zone,Anwara, ,Chittagong,Chittagong,Bangladesh","country_code":"BD","lat":22.2540408,"lng":91.8555628,"country_name":"Bangladesh","contributors":"Fair Factories Clearinghouse (FFC FactoryList Apr 19)|adidas (adidas)"},{"id":"BD20191332RXECA","name":"Kenpark Bangladesh Apparel Pvt. Ltd. (K-5)","address":"Plot #14/23 Sector #2 Karnaphuli Export Processing Zone, Chittagong, Chittagong, Bangladesh","country_code":"BD","lat":22.356851,"lng":91.7831819,"country_name":"Bangladesh","contributors":"VF Corporation (VF Corporation Factory List August 2019)|adidas (adidas)"},{"id":"BE2019083WR4CMP","name":"Jules Clarysse Nv","address":"Brugsesteenweg 106, N/A, Pittem, Flemish, 8740","country_code":"BE","lat":51.0060805,"lng":3.2355439,"country_name":"Belgium","contributors":"Fair Factories Clearinghouse (FFC FactoryList Apr 19)|Pentland [Public List] (Pentland Facility List Tier 1 March 26 2019)|adidas (adidas)"},{"id":"BE2019143VESSA0","name":"Cousy BVBA","address":"Vandendrieschestraat 10   Zottegem 9620 Flemish Belgium","country_code":"BE","lat":50.8802686,"lng":3.8167968,"country_name":"Belgium","contributors":"adidas (adidas)"},{"id":"BG2019085SR2DBD","name":"DELTA TEXTILE BULGARIA LTD.","address":"44 TUTRAKAN BLVD","country_code":"BG","lat":44.0386035,"lng":26.61951,"country_name":"Bulgaria","contributors":"Nike [Public List] (Nike November 2018 Facility List)"},{"id":"BR20190831P8Q23","name":"Calcados Ramarim Ltda. (Nova Hartz)","address":"Rua Angra Dos Reis 171  B. Das Rosas Nova Hartz – RS Rio Grande do Sul","country_code":"BR","lat":-29.5801516,"lng":-50.9011897,"country_name":"Brazil","contributors":"VF Corporation (VF Corporation Factory List August 2019)|adidas (adidas)"},{"id":"BR201908374TJBD","name":"Textil H.J. Hering Ltda.","address":"Rua Rio De Janeiro Nr.965 Indaial  Santa Catarina","country_code":"BR","lat":-26.8996745,"lng":-49.2254962,"country_name":"Brazil","contributors":"Fair Factories Clearinghouse (FFC FactoryList Apr 19)|PVH [Public List] (PVH December 31 2018 Facility List)|Nike [Public List] (Nike November 2018 Facility List)|VF Corporation (VF Corporation Factory List August 2019)"},{"id":"BR2019083BCT3ED","name":"Paqueta Calcados Ltda. (Sapiranga)","address":"Av. 20 De Setembro 4411 Sapiranga Rio Grande do Sul","country_code":"BR","lat":-29.6333952,"lng":-51.0010188,"country_name":"Brazil","contributors":"Fair Factories Clearinghouse (FFC FactoryList Apr 19)|VF Corporation (VF Corporation Factory List August 2019)|adidas (adidas)"},{"id":"BR2019083CTJS1X","name":"Paqueta Calcados Ltda. (Pentecoste Pre-Fabricado)","address":"Avenida Antonio Braga De Azevedo 1  B. São Francisco Pentecoste  Ceara","country_code":"BR","lat":-3.7900858,"lng":-39.2560571,"country_name":"Brazil","contributors":"adidas (adidas)"},{"id":"BR2019083DNM8JV","name":"Paqueta Calcados Ltda. (Pentecoste Fabrica)","address":"Avenida Antonio Braga De Azevedo 407  B. São Francisco Pentecoste  Ceara","country_code":"BR","lat":-3.7900858,"lng":-39.2560571,"country_name":"Brazil","contributors":"Fair Factories Clearinghouse (FFC FactoryList Apr 19)|adidas (adidas)"},{"id":"BR2019083FCH0NC","name":"Coopershoes Ltda. (Picada Cafe)","address":"Rua Vicente Prieto 3581  Joaneta Picada Café  Rio Grande do Sul","country_code":"BR","lat":-29.45128,"lng":-51.103005,"country_name":"Brazil","contributors":"Nike [Public List] (Nike November 2018 Facility List)|Asics [Public List] (Asics 2018 Facility LIst)|VF Corporation (VF Corporation Factory List August 2019)"},{"id":"BR2019083W61QMS","name":"WS Calcados Ltda.","address":"Rua Vicente Prieto 8321  Pinhal Alto Nova Petrópolis  Rio Grande do Sul","country_code":"BR","lat":-29.451748,"lng":-51.118333,"country_name":"Brazil","contributors":"Nike [Public List] (Nike November 2018 Facility List)"},{"id":"BR20190851XTY58","name":"GORDON AND SMITH","address":"RUA BELEM , 212 SÃO PAULO SP","country_code":"BR","lat":-23.5392519,"lng":-46.5967791,"country_name":"Brazil","contributors":"Nike [Public List] (Nike November 2018 Facility List)"},{"id":"BR20190852VXEVG","name":"DASS SUL CALÇADOS E ARTIGOS ESPORTIVOS LTDA - VENANCIO AIRES","address":"RUA OTTMMAR BENNO SCHULTZ, 3700 VENANCIO AIRES RIO GRANDE DO SUL 95800-000","country_code":"BR","lat":-29.6380646,"lng":-52.1839751,"country_name":"Brazil","contributors":"Nike [Public List] (Nike November 2018 Facility List)"},{"id":"BR20190856S16WF","name":"COOPERSHOES - COOPERATIVA DE TRABALHO E INDUSTRIA DE CALÇADOS JOANETENSE LTDA (MORADA NOVA)","address":"AV DO CONTORNO, S/Nº - CE265 MORADA NOVA CEARA 62940000","country_code":"BR","lat":-5.039843,"lng":-38.4720709,"country_name":"Brazil","contributors":"Nike [Public List] (Nike November 2018 Facility List)"},{"id":"BR20190858WRSFH","name":"MARP INDUSTRIA TEXTIL","address":"RUA BAHIA, 7683 BLUMENAU SANTA CATARINA 89032 002","country_code":"BR","lat":-26.900839,"lng":-49.1439901,"country_name":"Brazil","contributors":"Nike [Public List] (Nike November 2018 Facility List)"},{"id":"BR2019085BV6QBV","name":"PETTENATI","address":"ROD. RSC 453, KM 2,4 CAXIAS DO SUL RIO GRANDE DO SUL 95010.55","country_code":"BR","lat":-29.4920281,"lng":-49.8641208,"country_name":"Brazil","contributors":"Nike [Public List] (Nike November 2018 Facility List)"},{"id":"BR2019085CCWCS6","name":"COCALQUI COOPERATIVA DE TRABALHO DA INDÚSTRIA DE CALÇADOS DE QUIXERAMOBIM","address":"RUA GERALDO BIZARRIA DE CARVALHO, 35 QUIXERAMOBIM CEARÁ 63800-000","country_code":"BR","lat":-5.1831571,"lng":-39.2889942,"country_name":"Brazil","contributors":"Nike [Public List] (Nike November 2018 Facility List)"},{"id":"BR2019085DMVS79","name":"COOPERSHOES - COOPERATIVA DE TRABALHO E INDUSTRIA DE CALÇADOS JOANETENSE LTDA (GARIBALDI)","address":"RUA VICENTE FARAON, 626, BAIRRO CHAMPAGNE GARIBALDI RIO GRANDE DO SUL 95720000","country_code":"BR","lat":-29.2585749,"lng":-51.5205104,"country_name":"Brazil","contributors":"Nike [Public List] (Nike November 2018 Facility List)"},{"id":"BR2019085DVH3KW","name":"ANIGER CALÇADOS SUPRIMENTOS E EMPREENDIMENTOS LTDA","address":"RUA ARMINDO ELTZ, 51  - QUATRO COLÔNIAS CAMPO BOM – RS RS 93700-000","country_code":"BR","lat":-29.6621907,"lng":-51.0358504,"country_name":"Brazil","contributors":"Nike [Public List] (Nike November 2018 Facility List)"},{"id":"BR2019085E3B2AN","name":"DASS NORDESTE CALÇADOS E ARTIGOS ESPORTIVOS LTDA","address":"RUA JULIO HAUSER, 1640 - BAIRRO 7 DE SETEMBRO IVOTI RS 93900-000","country_code":"BR","lat":-29.6094259,"lng":-51.1597548,"country_name":"Brazil","contributors":"Nike [Public List] (Nike November 2018 Facility List)"},{"id":"BR2019085FCJ947","name":"NACIONAL COMPANY LTDA","address":"ALAMEDA CLEVELAND, 689 SAO PAULO SAO PAULO 1218","country_code":"BR","lat":-23.5296566,"lng":-46.6437985,"country_name":"Brazil","contributors":"Nike [Public List] (Nike November 2018 Facility List)"},{"id":"BR2019085HRMK74","name":"RS/TUPÃ IND.  DE PLASTICO LTDA","address":"AVENIDA PRIMEIRO DE MARÇO, 5151 NOVO HAMBURGO RIO GRANDE DO SUL 93320-010","country_code":"BR","lat":-29.7297472,"lng":-51.1409501,"country_name":"Brazil","contributors":"Nike [Public List] (Nike November 2018 Facility List)"},{"id":"BR2019085JKENK8","name":"THOMAS E GOERGEN ATELIER DE CALÇADOS LTDA ME","address":"RUA 9 DE FEVEREIRO Nº1.444 - CENTRO SANTA CLARA DO SUL RIO GRANDE DO SUL 95835-000","country_code":"BR","lat":-29.467929,"lng":-52.089835,"country_name":"Brazil","contributors":"Nike [Public List] (Nike November 2018 Facility List)"},{"id":"BR2019085JT1NT9","name":"PETTENATI","address":"RODOVIA RS 122 KM 72 – DISTRITO INDUSTRIAL CAXIAS DO SUL RIO GRANDE DO SUL 615","country_code":"BR","lat":-29.1702249,"lng":-51.1998007,"country_name":"Brazil","contributors":"Nike [Public List] (Nike November 2018 Facility List)"},{"id":"BR2019085KJAGET","name":"DASS SUL CALÇADOS E ARTIGOS ESPORTIVOS LTDA","address":"MARCILIO DIAS, 10 SAUDADES SC 89868-000","country_code":"BR","lat":-26.9284953,"lng":-53.0004045,"country_name":"Brazil","contributors":"Nike [Public List] (Nike November 2018 Facility List)|adidas (adidas)"},{"id":"BR2019085M73F71","name":"BOECK & BOECK","address":"ROD.GETÚLIO VARGAS, 1760. CENTRO PICADA-CAFÉ RS 95175000","country_code":"BR","lat":-29.3857922,"lng":-51.1225328,"country_name":"Brazil","contributors":"Nike [Public List] (Nike November 2018 Facility List)"},{"id":"BR2019085MSHGB6","name":"DASS NORDESTE CALÇADOS E ARTIGOS ESPORTIVOS LTDA.","address":"AV. JURACY MAGALHÃES, 5100 VITORIA DA CONQUISTA BAHIA 45023-490","country_code":"BR","lat":-14.9060568,"lng":-40.8444642,"country_name":"Brazil","contributors":"Nike [Public List] (Nike November 2018 Facility List)"},{"id":"BR2019085PGWAJB","name":"LISI CALÇADOS E COSTURA LTDA","address":"RUA SETE DE SETEMBRO, 141, BAIRRO CENTRO SANTA CLARA DO SUL RS 95915-000","country_code":"BR","lat":-29.4653796,"lng":-52.0784105,"country_name":"Brazil","contributors":"Nike [Public List] (Nike November 2018 Facility List)"},{"id":"BR2019085Q71GZV","name":"DASS NORDESTE CALÇADOS E ARTIGOS ESPORTIVOS LTDA.","address":"RUA PROFESSORA MARIA LIA CELIA VELLAME, S/N SANTO ESTEVÃO BAHIA 44190-000","country_code":"BR","lat":-12.4316382,"lng":-39.2461822,"country_name":"Brazil","contributors":"Nike [Public List] (Nike November 2018 Facility List)"},{"id":"BR2019085QYVR5T","name":"CIGNACHI - INDÚSTRIA E COMÉRCIO LTDA","address":"RUA JOSÉ SACHET, Nº 970 FARROUPILHA RS, BRASIL","country_code":"BR","lat":-29.2209953,"lng":-51.3619682,"country_name":"Brazil","contributors":"Nike [Public List] (Nike November 2018 Facility List)"},{"id":"BR2019085TMZ8CE","name":"DASS NORDESTE  CALÇADOS E ARTIGOS ESPORTIVOS LTDA.","address":"AV. JURACY MAGALHÃES, 5200 VITÓRIA DA CONQUISTA BAHIA - BA 45023 -490","country_code":"BR","lat":-14.9063286,"lng":-40.8444578,"country_name":"Brazil","contributors":"Nike [Public List] (Nike November 2018 Facility List)"},{"id":"BR2019085W6SXPV","name":"C&E CONFECCOES LTDA","address":"R LUIZ WESTPHAL , 386 SAO GABRIEL DA PALHA ES 29780-000","country_code":"BR","lat":-18.9349074,"lng":-40.5127142,"country_name":"Brazil","contributors":"Nike [Public List] (Nike November 2018 Facility List)"},{"id":"BR2019085W6ZBSJ","name":"ATELIER DE COSTURA GIOLA","address":"STREET SOBRADINHO, Nº 271 PRESIDENTE LUCENA RS 93945000","country_code":"BR","lat":-29.5180482,"lng":-51.1803071,"country_name":"Brazil","contributors":"Nike [Public List] (Nike November 2018 Facility List)"},{"id":"BR2019086BRP2X6","name":"Lupo Sa","address":"Rod. Washington Luis, 14803900, Araraquara, Brazil","country_code":"BR","lat":-21.817163,"lng":-48.1800767,"country_name":"Brazil","contributors":"Agreement on Sustainable Garments and Textile (AGT) (16_2018)|C&A (C&A Supplier's facility list - April 2019)|adidas (adidas)"},{"id":"BR2019086GBCWAV","name":"Selene Industria Textil S A","address":"R.Do Velho Ramal, 18520000, Cerquilho, Brazil","country_code":"BR","lat":-23.1481654,"lng":-47.7389328,"country_name":"Brazil","contributors":"Agreement on Sustainable Garments and Textile (AGT) (16_2018)|C&A (C&A Supplier's facility list - April 2019)|adidas (adidas)"},{"id":"BR2019093MT16QR","name":"EVOLUCAO TEXTIL","address":"#76 R ELSA METTE BLUMENAU SC 89065-132","country_code":"BR","lat":-26.9165792,"lng":-49.0717331,"country_name":"Brazil","contributors":"Nike [Public List] (Nike November 2018 Facility List)"},{"id":"BR2019097YR4N54","name":"Tecnotextil confecções Ltda.","address":"Rua Regina Célia Viccentini, no 227 - Bairro : Aristides Vieira de Mendon","country_code":"BR","lat":-21.3754786,"lng":-45.5190569,"country_name":"Brazil","contributors":"Asics [Public List] (Asics 2018 Facility LIst)|adidas (adidas)"},{"id":"BR20190988NX86S","name":"Paqueta Calçados Ltda. (Itapajé)","address":"Rua Bento Ávila de Sousa Nº 137 ,Bairro Santa Rita,Itapajé - CE,Ceara,Brazil","country_code":"BR","lat":-3.690562,"lng":-39.578848,"country_name":"Brazil","contributors":"Fair Factories Clearinghouse (FFC FactoryList Apr 19)|VF Corporation (VF Corporation Factory List August 2019)|adidas (adidas)"},{"id":"BR201914304GBRZ","name":"Ranee Industria e Comercio Ltda. 3 (Campo Erê)","address":"Rua 31 de março, S/N   Campo Ere 89980000 Rio Grande do Sul Brazil","country_code":"BR","lat":-26.3942685,"lng":-53.0791648,"country_name":"Brazil","contributors":"adidas (adidas)"},{"id":"BR201914308H4RX","name":"Tacosola Borrachas Ltda","address":"BR 116, 7729 – Bairro Roselândia   NOVO HAMBURGO 93351-155 Rio Grande do Sul Brazil","country_code":"BR","lat":-29.6487836,"lng":-51.1437485,"country_name":"Brazil","contributors":"adidas (adidas)"},{"id":"BR2019143168FW2","name":"Industria de Calí_ados Serrota LTDA","address":"Rua Manuel Camilo Cruz Serrota  Pentecoste 0 Ceara Brazil","country_code":"BR","lat":-3.85,"lng":-39.333333,"country_name":"Brazil","contributors":"adidas (adidas)"},{"id":"BR20191431B2F27","name":"Pettenati S.A Ind. Textil - Matriz Confecções","address":"RSC 453 - KM 2400 Distrito Industrial  Caxias do Sul  95010-550 Rio Grande do Sul Brazil","country_code":"BR","lat":-29.4920281,"lng":-49.8641208,"country_name":"Brazil","contributors":"adidas (adidas)"},{"id":"BR20191431KSNW6","name":"Phael Confecçoes de Auriflama Eireli","address":"Av. Marcos Matarezio,32-57   Auriflama 15350-000 Sao Paulo Brazil","country_code":"BR","lat":-20.6871144,"lng":-50.5645688,"country_name":"Brazil","contributors":"adidas (adidas)"},{"id":"BR20191433RWB6G","name":"R DOIS INJETADOS LTDA","address":"AV. OSCAR MARTINS RANGEL , 4310   TAQUARA 95600-000 Rio Grande do Sul Brazil","country_code":"BR","lat":-29.6409132,"lng":-50.7958676,"country_name":"Brazil","contributors":"adidas (adidas)"},{"id":"BR20191434TCH7A","name":"Paqueta Calçados Ltda. (Apuiarés)","address":"Av. Gomes da Silva, 329    Apuiarés     62630-000     Ceara Brazil","country_code":"BR","lat":-3.9428095,"lng":-39.4284476,"country_name":"Brazil","contributors":"adidas (adidas)"},{"id":"BR20191437JHR6G","name":"Industria e Comercio de Calí_ados Pentecoste Ltda EPP","address":"Rua 15 de Novembro, 1   Pentecoste 0 Ceara Brazil","country_code":"BR","lat":-3.7924416,"lng":-39.2697747,"country_name":"Brazil","contributors":"adidas (adidas)"},{"id":"BR2019143CE58T9","name":"Dass Nordeste Calçados e Artigos Esportivos S.A - Itapipoca","address":"Rua da Universidade, 240 –  Bairro Madalena  Itapipoca 62500-000 Ceara Brazil","country_code":"BR","lat":-3.4900866,"lng":-39.5680157,"country_name":"Brazil","contributors":"adidas (adidas)"},{"id":"BR2019143FHXB8R","name":"Flecksteel Industria de Artefatos Metalicos LTDA","address":"Av Carlos Strassburger Filho, 5370-5  N/A Campo Bom 93700-000 Rio Grande do Sul Brazil","country_code":"BR","lat":-29.6720128,"lng":-51.0719041,"country_name":"Brazil","contributors":"adidas (adidas)"},{"id":"BR2019143H1PF65","name":"RS TUPÃ","address":"Av. 1º de Março, 5151 Bairro Liberdade  NOVO HAMBURGO 93320-010 Rio Grande do Sul Brazil","country_code":"BR","lat":-29.7297472,"lng":-51.1409501,"country_name":"Brazil","contributors":"adidas (adidas)"},{"id":"BR2019143H1YRBV","name":"FORMAS KUNZ LTDA","address":"RODOVIA RS239, Nº 4631   NOVO HAMBURGO  Rio Grande do Sul Brazil","country_code":"BR","lat":-29.6644589,"lng":-51.0948567,"country_name":"Brazil","contributors":"adidas (adidas)"},{"id":"BR2019143KMK5EN","name":"Ranee Industria e Comercio Ltda.2 (São Carlos)","address":"Av. Santa Catarina, 766   São Carlos 89885 000 Santa Catarina Brazil","country_code":"BR","lat":-27.081539,"lng":-53.0037359,"country_name":"Brazil","contributors":"adidas (adidas)"},{"id":"BR2019143MJBB04","name":"Ranee Industria e Comercio Ltda. 1 (Pinhalzinho)","address":"Av. Brasilia, 1822 Centro  Pinhalzinho 89870-000 Santa Catarina Brazil","country_code":"BR","lat":-26.8472183,"lng":-52.9873902,"country_name":"Brazil","contributors":"adidas (adidas)"},{"id":"BR2019143Z6H5HM","name":"Sola Nova Industrial Ltda.","address":"RUA TRISTÃO DE ALMEIDA , 4131 Distrito Industrial  Franca 14406-105 Sao Paulo Brazil","country_code":"BR","lat":-20.5545652,"lng":-47.4959506,"country_name":"Brazil","contributors":"adidas (adidas)"},{"id":"BR2019143ZW8EJB","name":"Ranee Indústria e Comércio Ltda - Saudades","address":"Rua Marcilio Dias, 163 Centro   Saudades 89868000 Santa Catarina Brazil","country_code":"BR","lat":-26.9270274,"lng":-53.0005763,"country_name":"Brazil","contributors":"adidas (adidas)"},{"id":"CA20190858ZZAZC","name":"LES VETEMENTS SP APPAREL INC.","address":"1237 BOULEVARD INDUSTRIEL GRANBY QUEBEC J2J 2B8","country_code":"CA","lat":45.3743882,"lng":-72.7759802,"country_name":"Canada","contributors":"Nike [Public List] (Nike November 2018 Facility List)"},{"id":"CA2019085E5WF1W","name":"IMPRESSIONS CASEE INC.","address":"9500 RUE MEILLEUR, SUTE 130 MONTREAL QUEBEC H2N 2B7","country_code":"CA","lat":45.5379758,"lng":-73.6580767,"country_name":"Canada","contributors":"Nike [Public List] (Nike November 2018 Facility List)"},{"id":"CA2019085H8YCMM","name":"DYNAMIC TEAM SPORTS","address":"1870 BIRCHMOUNT RD TORONTO ONTARIO M1P 2J7","country_code":"CA","lat":43.7683148,"lng":-79.2932074,"country_name":"Canada","contributors":"Nike [Public List] (Nike November 2018 Facility List)"},{"id":"CA20190983P8TSN","name":"King's embroidery Ltd.","address":"225 Nugget Ave, Unit 8 & 9,Scarborough,Ontario,Canada","country_code":"CA","lat":43.7946277,"lng":-79.2517225,"country_name":"Canada","contributors":"Fair Factories Clearinghouse (FFC FactoryList Apr 19)|adidas (adidas)"},{"id":"CA2019098GF4ZQT","name":"S&P Apparel Inc","address":"1237 Industrial Boulevard,Granby,Quebec,Canada","country_code":"CA","lat":45.3743882,"lng":-72.7759802,"country_name":"Canada","contributors":"Fair Factories Clearinghouse (FFC FactoryList Apr 19)|adidas (adidas)"},{"id":"CA2019098TT8KJ2","name":"Silver Crystal Sports Inc.","address":"1141 Roselawn Ave,Toronto,Ontario,Canada","country_code":"CA","lat":43.6994155,"lng":-79.4528966,"country_name":"Canada","contributors":"Fair Factories Clearinghouse (FFC FactoryList Apr 19)|adidas (adidas)"},{"id":"CA2019143GR5RHE","name":"KG Spray-Pak, Inc.","address":"8001 Keele Street   Vaughan L4K1Y8 Ontario Canada","country_code":"CA","lat":43.8060995,"lng":-79.4995635,"country_name":"Canada","contributors":"adidas (adidas)"},{"id":"CA2019143HRFP4A","name":"CSG International Inc.","address":"8660 Ch. Darnley, Suite 102   Mont Royal H4T 1M4 Quebec Canada","country_code":"CA","lat":45.4896822,"lng":-73.6816252,"country_name":"Canada","contributors":"adidas (adidas)"},{"id":"CA2019143XXGZAB","name":"Rair T & Co Inc.","address":"3570 Griffith    Ville St Laurent  H4T 1A7 Quebec Canada","country_code":"CA","lat":45.4862349,"lng":-73.696426,"country_name":"Canada","contributors":"adidas (adidas)"},{"id":"CL2019143GFKW9T","name":"New Commerce Ltda","address":"Cueto 666   Santiago 8350328  Chile","country_code":"CL","lat":-33.4372336,"lng":-70.672793,"country_name":"Chile","contributors":"adidas (adidas)"},{"id":"CN20190831Q9JJD","name":"Jiangsu Xuezhongfei Garment Co., Ltd.","address":"Kangbo Avenue  Kangbo Village Guli Town Changshu Jiangsu","country_code":"CN","lat":31.632746,"lng":120.842203,"country_name":"China","contributors":"VF Corporation (VF Corporation Factory List August 2019)|adidas (adidas)"},{"id":"CN20190835FD10A","name":"Zhangjiagang Dongdu Teo Garment Co Ltd","address":"No 638 Jingang Road Zhangjiagang City Jiangsu Province","country_code":"CN","lat":31.824502,"lng":120.543471,"country_name":"China","contributors":"adidas (adidas)"},{"id":"CN2019083B1PMDB","name":"Zhejiang Huizhong Garment (SC China)","address":"No.123,Cheng Gong Road,Huiming Street,Jiashan","country_code":"CN","lat":30.87003,"lng":120.973589,"country_name":"China","contributors":"lululemon [Public List] (lululemon March 2018 Facility List)|adidas (adidas)"},{"id":"CN2019083C47KJ4","name":"Dongguan Zerong Bag Ltd.","address":"No. 382 Jin Xing Road Xixi Industrial Area Liaobu Dongguan Dongguan Guangdong","country_code":"CN","lat":22.997936,"lng":113.910686,"country_name":"China","contributors":"adidas (adidas)"},{"id":"CN2019083CS0EQJ","name":"Far Eastern Apparel (Suzhou) Co. Ltd","address":"88,Tian Ling Road.,SuZhou","country_code":"CN","lat":31.245217,"lng":120.6336265,"country_name":"China","contributors":"Nike [Public List] (Nike November 2018 Facility List)|lululemon [Public List] (lululemon March 2018 Facility List)"},{"id":"CN2019083D9E1V8","name":"Young Sporting Goods (Suzhou) Co., Ltd","address":"No.498 Changan Road, Wujiang Economic & Technological Development Zone, Suzhou, Jiangsu, 215200","country_code":"CN","lat":31.1153925,"lng":120.662391,"country_name":"China","contributors":"PVH [Public List] (PVH December 31 2018 Facility List)|Pentland [Public List] (Pentland Facility List Tier 1 March 26 2019)|adidas (adidas)"},{"id":"CN2019083ECJE35","name":"Jilin Province Northeast Socks Industry Park Hosiery Knitting Co Ltd","address":"Building E4-2 Northeast Socks Textile Industry Park Economic Development Zone Liaoyuan City Jilin 136200","country_code":"CN","lat":42.8879245,"lng":125.1435053,"country_name":"China","contributors":"adidas (adidas)"},{"id":"CN2019083H6CTPV","name":"Zhucheng Hengwei Clothing Co Ltd","address":"Southern Head Of East Outer Ring,Zhuchneg,Shandong","country_code":"CN","lat":35.8939566,"lng":117.9249002,"country_name":"China","contributors":"adidas (adidas)|The PAS Group (PAS Group August 2017 Facility List)"},{"id":"CN2019083JFKHT7","name":"Ningbo Shenzhou Knitting Co., Ltd.","address":"No.18 Yongjiang Road, Economic Technical Development Zone, Ningbo, China","country_code":"CN","lat":29.892693,"lng":121.841916,"country_name":"China","contributors":"Nike [Public List] (Nike November 2018 Facility List)|Uniqlo (Mills) [Public List] (Uniqlo Mills Nov 2018 Facility List)"},{"id":"CN2019083JNMWTS","name":"Jiangsu Asian Sourcing Headwear Manufacturing Co., Ltd.","address":"No. 2  South Guangzhou Road Economic And Technology Development Zone Huai An Jiangsu","country_code":"CN","lat":23.12911,"lng":113.264385,"country_name":"China","contributors":"Outerknown [Public List] (Outerknown 2018 Facility List)|Nike [Public List] (Nike November 2018 Facility List)|adidas (adidas)|VF Corporation (VF Corporation Factory List August 2019)"},{"id":"CN2019083QBPMQB","name":"HuaEr Technology Group Co. Ltd.","address":"No. 48 Shijing Road Haining Economic Development Zone HaiNing Zhejiang","country_code":"CN","lat":30.5391531,"lng":120.728355,"country_name":"China","contributors":"VF Corporation (VF Corporation Factory List August 2019)|adidas (adidas)"},{"id":"CN2019083WXAZ4E","name":"Quanzhou Unison Light Industrial Manu Co Ltd","address":"Linjiang Industrial Park Nanhuan Road Quanzhou City Fujian","country_code":"CN","lat":41.811979,"lng":126.918087,"country_name":"China","contributors":"Nike [Public List] (Nike November 2018 Facility List)"},{"id":"CN201908503T5ZB","name":"Regina Miracle Intimate Apparel (Shenzhen) Ltd.","address":"No. 5 Cengyao Industrial Estate, Yulu, Gongming, Guangming New District, Shenzhen Shenzhen","country_code":"CN","lat":22.763872,"lng":113.940897,"country_name":"China","contributors":"Gap Inc (Gap Inc April 2019 - Factory List)|Hanes Brand (Strategic Contractors) [Public List] (Hanes Brand February 2019 Strategic Contractors Facility List)|PVH [Public List] (PVH December 31 2018 Facility List)|Fair Factories Clearinghouse (FFC FactoryList Apr 19)|Nike [Public List] (Nike November 2018 Facility List)|adidas (adidas)"},{"id":"CN20190850AVKCE","name":"NINGBO SHENZHOU KNITTING CO. LTD. (PRINTING MILL & MC)","address":"NO.636 FUCHUNJIANG ROAD NINGBO ZHEJIANG 315800","country_code":"CN","lat":29.932036,"lng":121.802281,"country_name":"China","contributors":"Nike [Public List] (Nike November 2018 Facility List)"},{"id":"CN201908516F1VW","name":"ZHANGJIAJIE EXCELLENCE SPORT PRODUCTS CO., LTD.","address":"BUILDING NO1.2.3 QILONGGANG INDUSTRIAL ZONE, CILI COUNTRY INDUSTRIAL PARK ZHANGJIAJIE HUNAN 427200","country_code":"CN","lat":29.4226487,"lng":111.1263146,"country_name":"China","contributors":"Nike [Public List] (Nike November 2018 Facility List)"},{"id":"CN201908518S79W","name":"TORAY SAKAI CO. LTD.","address":"NO.58 XINKAI SOUTH ROAD NANTONG ECONOMIC & TECHNOLOGICAL DEVELOPMENT ZONE, NANTONG JIANG SU JIANGSU 226010","country_code":"CN","lat":31.902293,"lng":120.935614,"country_name":"China","contributors":"Nike [Public List] (Nike November 2018 Facility List)"},{"id":"CN20190851M6SDB","name":"RAMATEX INDUSTRIA LTD.","address":"88 SU HONG XI LU JIANG SU JIANGSU 215021","country_code":"CN","lat":31.329001,"lng":120.675939,"country_name":"China","contributors":"Nike [Public List] (Nike November 2018 Facility List)"},{"id":"CN201908527SHA7","name":"HAIYAN GOLDEN GATE SOCKS INDUSTRY CO., LTD","address":"TONG YUAN TOWN, ZHANG QIAO VILLAGE HAIYAN ZHEJIANG","country_code":"CN","lat":30.500652,"lng":120.793788,"country_name":"China","contributors":"Nike [Public List] (Nike November 2018 Facility List)"},{"id":"CN20190852FG11D","name":"WELLPOWER  SPORTING  GOODS  CO., LTD","address":"LIAFU STREET THREE DONGGUAN SHENZHEN 523425","country_code":"CN","lat":22.9814971,"lng":113.8765088,"country_name":"China","contributors":"Nike [Public List] (Nike November 2018 Facility List)"},{"id":"CN20190852HGH1Z","name":"BOU JIN (YANGZHOU) GARMENTS CO., LTD","address":"NO. 1, BAO YUEN RD., YUEYUEN INDUSTRIAL PARK, YANGZHOU YANGZHOU JIANGSU 225000","country_code":"CN","lat":32.3937202,"lng":119.4125005,"country_name":"China","contributors":"Nike [Public List] (Nike November 2018 Facility List)|Asics [Public List] (Asics 2018 Facility LIst)"},{"id":"CN20190852Z42M5","name":"JIANGSU JINHUBAO GARMENT CO., LTD","address":"LIDIAN TOWN, HANJIANG DISTRICT YANGZHOU JIANGSU 225106","country_code":"CN","lat":32.3177884,"lng":119.5764627,"country_name":"China","contributors":"Nike [Public List] (Nike November 2018 Facility List)"},{"id":"CN201908536BE0C","name":"HONWAYS APPAREL (SHUYANG) LIMITED","address":"NO. 6, JIAXING ROAD EAST, SHUYANG ECONOMIC DEV ZONE JIANGSU PROVINCE JIANGSU 223600","country_code":"CN","lat":34.1304774,"lng":118.8258705,"country_name":"China","contributors":"Nike [Public List] (Nike November 2018 Facility List)"},{"id":"CN20190853C7WJE","name":"SUZHOU TAIWAY APPAREL PTE LTD","address":"1280 JINFENG ROAD MUDU TOWN, WUZHONG SECTION JIANGSU 215101","country_code":"CN","lat":31.2953098,"lng":120.528511,"country_name":"China","contributors":"Nike [Public List] (Nike November 2018 Facility List)"},{"id":"CN20190853KEAXN","name":"PINGXIANG CITY GUANGXUAN FOOTWEAR CO. LTD.","address":"ZHUTING INDUSTRIAL ZONE, XUANFENG TOWN, LUXI COUNTY PINGXIANG CITY, PINGXIANG JIANGXI 337000","country_code":"CN","lat":27.691424,"lng":114.133024,"country_name":"China","contributors":"Nike [Public List] (Nike November 2018 Facility List)"},{"id":"CN20190853SSMK6","name":"ZHUJI HENGTAI KNITTING & TEXTILE CO., LTD.","address":"NO. 10, TIANYUAN WEST ROAD, CAOTA ZHUJI ZHEJIANG 311812","country_code":"CN","lat":29.688248,"lng":120.119979,"country_name":"China","contributors":"Nike [Public List] (Nike November 2018 Facility List)"},{"id":"CN20190854BXEJP","name":"DONG GUAN GOLDENPRENE SPORTING GOODS CO., LTD.","address":"(GUANG DER CORPORATION LTD /SUMMITOP INDUSTRIAL) LIAOBU TOWN, DONGGUAN GUANGDONG 523405","country_code":"CN","lat":22.99732,"lng":113.87497,"country_name":"China","contributors":"Nike [Public List] (Nike November 2018 Facility List)"},{"id":"CN20190854MG14Q","name":"CHANGZHOU ESQUEL KNITTING APPAREL CO., LTD","address":"346-1 MIDDLE HE PING ROAD CHANGZHOU JIANGSU 213000","country_code":"CN","lat":31.738871,"lng":119.6015568,"country_name":"China","contributors":"Gap Inc (Gap Inc April 2019 - Factory List)|Nike [Public List] (Nike November 2018 Facility List)"},{"id":"CN20190854SAW9P","name":"LONGCHUAN SOMONA FOOTWEAR CO.,LTD WUHUA BRANCH","address":"SHUIZHAI INDUSTRY GARDEN MEIZHOU GUANGDONG 514400","country_code":"CN","lat":23.9397461,"lng":115.7627355,"country_name":"China","contributors":"Nike [Public List] (Nike November 2018 Facility List)"},{"id":"CN20190854TEM0A","name":"NINGBO BELL GARMENT INDUSTRIAL CO. LTD","address":"NO 422, JIANGHU ROAD, JIANGBEI INVESTMENT ZONE C NINGBO ZHEJIANG 315033","country_code":"CN","lat":29.944835,"lng":121.477396,"country_name":"China","contributors":"Nike [Public List] (Nike November 2018 Facility List)"},{"id":"CN20190854XNCP2","name":"GOLD LONG JOHN CHINA","address":"NO. 95, GAOPING AVE.  ZHONGSHAN GUANGDONG 528400","country_code":"CN","lat":22.692668,"lng":113.464936,"country_name":"China","contributors":"Nike [Public List] (Nike November 2018 Facility List)"},{"id":"CN201908550E175","name":"FORMOSA TAFFETA CO., LTD (CHINA)","address":"NO.1 PENGHU ROAD, SOUTHEAST ECONOMY DEVELOPMENT ZONE CHANGSHU JIANGSU 215500","country_code":"CN","lat":31.613596,"lng":120.831222,"country_name":"China","contributors":"Nike [Public List] (Nike November 2018 Facility List)"},{"id":"CN201908550ZCWP","name":"SHAOYANG LIANTAI (SQ) HANSHOU UPPER FACILITY","address":"HANSHOU INDUSTRIAL PARK, TAIZIMIAO TOWN, HANSHOU COUNTY CHANDE CITY HUNAN 415907","country_code":"CN","lat":28.7662307,"lng":111.9558564,"country_name":"China","contributors":"Nike [Public List] (Nike November 2018 Facility List)"},{"id":"CN20190855CVD25","name":"YANGZHOU BAOYI (ZHONGSHAN ) SHOES MANUFACTURING CO.,LTD.","address":"2ND INDUSTRIAL ESTATE BAISHI SANXIANG, ZHONGSHAN CITY,GUANGDONG PROVINCE. ZHONGSHAN GUANGDONG 528463","country_code":"CN","lat":22.358169,"lng":113.440958,"country_name":"China","contributors":"Nike [Public List] (Nike November 2018 Facility List)"},{"id":"CN201908566S4N8","name":"PRIME ASIA (CHINA)","address":"YUE YUEN INDUSTRIAL PARK, HUANGJIANG TOWN DONGGUAN GUANGDONG","country_code":"CN","lat":22.915288,"lng":114.003577,"country_name":"China","contributors":"Nike [Public List] (Nike November 2018 Facility List)"},{"id":"CN201908567JJD8","name":"CONTOUR OPTIK (JIANGXI) CO., LTD.","address":"YUJIANG INTERNATIONAL GLASSES INDUSTRIAL PARK YINGTAN JIANGXI","country_code":"CN","lat":28.280148,"lng":116.98784,"country_name":"China","contributors":"Nike [Public List] (Nike November 2018 Facility List)|Levi Strauss & Co. (Levi Strauss Co Facility List March 2019)"},{"id":"CN20190856G05MS","name":"JIANGXI GUANGYOU SHOETOWN FOOTWEAR CO., LTD.","address":"ZHANQIAN ROAD, XIANGTANG TOWN NANCHANG COUNTY NANCHANG CITY JIANGXI PROVINCE 330201","country_code":"CN","lat":28.4411358,"lng":115.9553592,"country_name":"China","contributors":"Nike [Public List] (Nike November 2018 Facility List)"},{"id":"CN20190856K66XC","name":"JIAXING KANAAN BAG R&D CO.,LTD","address":"QIXING INDUSTRIAL ZONE, XIUCHENG JIAXIANG ZHEJIANG 314002","country_code":"CN","lat":30.8021748,"lng":120.8250787,"country_name":"China","contributors":"Nike [Public List] (Nike November 2018 Facility List)"},{"id":"CN20190856PB8JB","name":"THE HADDAD APPAREL WUXI, CO., LTD","address":"FLOOR 4, NO. 28-19, NANHU CENTER ROAD WUXI JIANGSU N/A","country_code":"CN","lat":31.43622,"lng":120.273057,"country_name":"China","contributors":"Nike [Public List] (Nike November 2018 Facility List)|Levi Strauss & Co. (Levi Strauss Co Facility List March 2019)"},{"id":"CN2019085769819","name":"JINING YONGJIN SHOES CO., LTD.","address":"100 METERS SOUTHWEST FROM THE CROSSROAD OF XI WAIHUAN ROAD AND GUANGCHANG ROAD JI NING CITY SHANDONG 272500","country_code":"CN","lat":35.718792,"lng":116.4949316,"country_name":"China","contributors":"Nike [Public List] (Nike November 2018 Facility List)"},{"id":"CN201908579W8KH","name":"JIANGSU HONGBAO SPORTING GOODS CO., LTD","address":"NO. 3 BUILDING SHANGSHUI INDUST HUAIAN JIANGSU 223400","country_code":"CN","lat":33.781103,"lng":119.2608545,"country_name":"China","contributors":"Nike [Public List] (Nike November 2018 Facility List)"},{"id":"CN20190857EC9N9","name":"RAMATEX INDUSTRIAL (SUZHOU( LTD","address":"88 SU HONG XI LU, SUZHOU INDUSTRIAL PARK SUZHOU JIANGSU 215021","country_code":"CN","lat":31.327606,"lng":120.669597,"country_name":"China","contributors":"Nike [Public List] (Nike November 2018 Facility List)"},{"id":"CN20190857FHG45","name":"SHENZHEN YI JIN OPTICAL CO. LTD","address":"6 JUNQUAN STREET HENGXIKENG, LONGGANG DISTRICT, SHENZHEN CITY GUANGDONG 0","country_code":"CN","lat":22.6463165,"lng":114.2065187,"country_name":"China","contributors":"Nike [Public List] (Nike November 2018 Facility List)"},{"id":"CN20190857GWSG6","name":"SHAOYANG STELLA FOOTWEAR COMPANY LIMITED","address":"JIXIAN ROAD SHAOYANG CITY HUNAN 422000","country_code":"CN","lat":27.2280656,"lng":111.4589472,"country_name":"China","contributors":"Nike [Public List] (Nike November 2018 Facility List)"},{"id":"CN20190857M159M","name":"FORMOSA LUGGAGE MANUFACTURING CO.LTD.","address":"HONGMING ROAD, HUSHAN VILLAGE HUIZHOU GUANGDONG 516127","country_code":"CN","lat":23.1326644,"lng":113.8717277,"country_name":"China","contributors":"Varner AS (Varner Brands facility list 2019)|Nike [Public List] (Nike November 2018 Facility List)"},{"id":"CN20190857M6A6V","name":"HUA FENG TEXTILE GROUP","address":"HUANGSHI INDUSTRIAL ZONE, PUTIAN CITY, FUJIAN CHINA PUTIAN FUJIAN 351144","country_code":"CN","lat":25.367633,"lng":119.078764,"country_name":"China","contributors":"Nike [Public List] (Nike November 2018 Facility List)"},{"id":"CN20190858DG2VC","name":"SUNNY JET HOSIERY CO., LIMITED","address":"NO. 9 LONGQUAN ROAD,GUANGLING INDUSTRY ZONE YANGZHOU JIANGSU 225003","country_code":"CN","lat":32.3671853,"lng":119.4998793,"country_name":"China","contributors":"Nike [Public List] (Nike November 2018 Facility List)|Levi Strauss & Co. (Levi Strauss Co Facility List March 2019)|Agreement on Sustainable Garments and Textile (AGT) (28_2018)"},{"id":"CN20190858Z0NW2","name":"C S ALLIANCE INTERNATIONAL COMPANY LIMITED","address":"SHENWAN VILLAGE, BUNFU TOWN ZHONGSAN GUANGDONG 523160","country_code":"CN","lat":22.302496,"lng":113.363816,"country_name":"China","contributors":"Nike [Public List] (Nike November 2018 Facility List)"},{"id":"CN20190859PZHF8","name":"ZHANGJIAGANG CHINA RESOURCES ACCESSORIZES CO.LTD","address":"ZHANGJIAGANG ECONOMIC DEVELOPMENT ZONE(NO.16,CHANGXIN ROAD,YANGSHE TOWN) ZHANGJIAGANG JIANGSU 215600","country_code":"CN","lat":31.889071,"lng":120.5253782,"country_name":"China","contributors":"Nike [Public List] (Nike November 2018 Facility List)|Levi Strauss & Co. (Levi Strauss Co Facility List March 2019)"},{"id":"CN20190859TJVME","name":"NINGBO EASTEX","address":"NO. 218, SHUN TAI ROAD, ZHENHAI DISTRICT NINGBO ZHEJIANG 32151","country_code":"CN","lat":29.967534,"lng":121.648828,"country_name":"China","contributors":"Nike [Public List] (Nike November 2018 Facility List)"},{"id":"CN2019085ABQBQR","name":"XINCHANG SHOES CO.,LTD","address":"HUAFENG INDUSTRY GARDEN XINNING GUANGDONG 510000","country_code":"CN","lat":23.2159405,"lng":113.2931741,"country_name":"China","contributors":"Nike [Public List] (Nike November 2018 Facility List)"},{"id":"CN2019085AH4M0X","name":"YANGZHOU BAOYI  SHOES MANUFACTURING CO.,LTD.","address":"NO,168 YUYUAN ROAD,YUYUAN INDUSTRIAL PARK,YANGZHOU ECONOMIC AND TECHNICAL DEVELOPMENT ZONE,JIANGSU P YANG ZHOU JIANGSU 225009","country_code":"CN","lat":32.394209,"lng":119.412939,"country_name":"China","contributors":"Nike [Public List] (Nike November 2018 Facility List)"},{"id":"CN2019085AR49SJ","name":"NINGBO SHENZHOU KNITTIN CO.,LTD (QINGJIN FACTORY) SEWING DEPT. 4","address":"NINGBO PORT SONGHUAJIANG ROAD, DAGANG INDUSTRIAL ZONE NO. 51 ROAD NINGBO ZHEJIANG 315800","country_code":"CN","lat":29.9172777,"lng":121.8228389,"country_name":"China","contributors":"Nike [Public List] (Nike November 2018 Facility List)"},{"id":"CN2019085ASBD27","name":"TIONG LIONG (CHINA)","address":"HONG KUAN INDUSTRY VILLAGE FUQING CITY FUJIAN 350300","country_code":"CN","lat":25.7202946,"lng":119.3840655,"country_name":"China","contributors":"Nike [Public List] (Nike November 2018 Facility List)"},{"id":"CN2019085B1H0DM","name":"Yancheng Ever-Development Garment & Gifts Co., Ltd.","address":"Zhonglian Road, Sheyang County Yancheng","country_code":"CN","lat":33.7727722,"lng":120.2971971,"country_name":"China","contributors":"PVH [Public List] (PVH December 31 2018 Facility List)|adidas (adidas)"},{"id":"CN2019085B1YC00","name":"SHENZHEN PENGYIFA INDUSTRIAL CO, LTD","address":"2ND FLOOR, BUILDING A, B5, 1ST INDUSTRIAL RD, BAHUADONG, SHENZHEN GUANGMING DISTRICT GUANGDONG 518107","country_code":"CN","lat":22.7630783,"lng":113.9456757,"country_name":"China","contributors":"Nike [Public List] (Nike November 2018 Facility List)"},{"id":"CN2019085BA6X35","name":"NINGBO HUAYAO TEXTILE CO.,LTD","address":"NO.888 TINGHAI ROAD, CHUNXIAO INDUSTRIAL PARK, BEILUN DISTRICT NINGBO ZHEJIANG 315830","country_code":"CN","lat":29.7431375,"lng":121.8837109,"country_name":"China","contributors":"Nike [Public List] (Nike November 2018 Facility List)"},{"id":"CN2019085BGR805","name":"EVEREST TEXTILE CHINA","address":"NO.197 BAISHA ROAD, XINGHUO DEVELOPMENT ZONE, FENGXIAN SHANGHAI SHANGHAI 201419","country_code":"CN","lat":30.852457,"lng":121.53578,"country_name":"China","contributors":"Nike [Public List] (Nike November 2018 Facility List)"},{"id":"CN2019085BTS8H1","name":"DONGUAN LEE FONG LABEL MANUFACTURE CO., LTD","address":"NO.2 KAIXUAN ROAD, SANGYUAN COMMUNITY DONGGUAN CITY GUANGDONG 0","country_code":"CN","lat":23.054042,"lng":113.805463,"country_name":"China","contributors":"Nike [Public List] (Nike November 2018 Facility List)"},{"id":"CN2019085C6WGGR","name":"OWENS SPORTSWEAR - V-WIN APPAREL CO LTD","address":"CHEN JIE BU, LIAO BU DISTRICT DONGGUAN GUANGDONG","country_code":"CN","lat":22.991746,"lng":113.884753,"country_name":"China","contributors":"Nike [Public List] (Nike November 2018 Facility List)"},{"id":"CN2019085C9D1Q4","name":"QINGDAO TAEHWA SHOES CO., LTD","address":"SHUIYUAN ROAD LAIXI CITY SHANDONG 250011","country_code":"CN","lat":36.889084,"lng":120.51769,"country_name":"China","contributors":"Nike [Public List] (Nike November 2018 Facility List)"},{"id":"CN2019085CT65QJ","name":"DONG GUAN STELLA","address":"HOU DA ROAD. DA LING MANAGEMENT DISTRICT DONGGUAN GUANGDONG 523835","country_code":"CN","lat":22.951434,"lng":113.976312,"country_name":"China","contributors":"Nike [Public List] (Nike November 2018 Facility List)"},{"id":"CN2019085DHZB2M","name":"DONGGUAN BACUI KNITWEAR CO LTD","address":"JIN MEI VILLAGE, CHANG PING TOWN, DONGGUAN CITY, GUANGDONG PROVINCE, CHINA 523579 DONGGUAN GUANGDONG 523579","country_code":"CN","lat":22.9570874,"lng":113.9676438,"country_name":"China","contributors":"Nike [Public List] (Nike November 2018 Facility List)"},{"id":"CN2019085EQYTEN","name":"JIANGSU XIAYUNFEI GARMENT CO., LTD.","address":"8 JINZHUANG ROAD ZHUTANG TOWN JIANGYIN JIANGSU 214400","country_code":"CN","lat":31.759888,"lng":120.394519,"country_name":"China","contributors":"Nike [Public List] (Nike November 2018 Facility List)|Levi Strauss & Co. (Levi Strauss Co Facility List March 2019)"},{"id":"CN2019085ER5V3K","name":"ZAO ZHUANG RUIXING SHOES CO., LTD","address":"N0.3 FUXING ROAD ZAOZHUANG CITY SHANDONG 250011","country_code":"CN","lat":34.755597,"lng":117.57566,"country_name":"China","contributors":"Nike [Public List] (Nike November 2018 Facility List)"},{"id":"CN2019085EVQ0V5","name":"ZHEJIANG CLIS FASHION CO., LTD.","address":"Nº 10 BLDG Nº 39 XIANGYUAN ROAD. HANGZHOU ZHEJIANG 310012","country_code":"CN","lat":30.336457,"lng":120.112455,"country_name":"China","contributors":"Nike [Public List] (Nike November 2018 Facility List)|Pentland [Public List] (Pentland Facility List Tier 1 March 26 2019)"},{"id":"CN2019085F0GNB9","name":"QINGDAO CHANGSHIN SHOES CO., LTD.","address":"NO.6 QUANZHOU ROAD QINGDAO SHANDONG 266300","country_code":"CN","lat":36.2955541,"lng":120.0384092,"country_name":"China","contributors":"Nike [Public List] (Nike November 2018 Facility List)"},{"id":"CN2019085F36V41","name":"LONG YUE SHOES INDUSTRIAL  (HUI  ZHOU)CO.,LTD.","address":"LONGTING INDUS.PARK, LONGQIAO AVENUE,LONGXI TOWN, BOLUO COUNTY HUIZHOU GUANGDONG 516000","country_code":"CN","lat":23.1012587,"lng":114.1114798,"country_name":"China","contributors":"Nike [Public List] (Nike November 2018 Facility List)"},{"id":"CN2019085FDDCKJ","name":"SAN FANG CHINA","address":"YU YUEN INDUSTRIAL PARK, HE ROAD, INDUSTRIAL DISTRICT, HUANG, DONGGUAN, GUANGDONG DONGGUAN GUANGDONG 523758","country_code":"CN","lat":22.9019211,"lng":114.0032636,"country_name":"China","contributors":"Nike [Public List] (Nike November 2018 Facility List)"},{"id":"CN2019085FM8C89","name":"QINGDAO TAEKWANG SHOES CO., LTD","address":"LIQUANGZHUANG TOWN INDUSTRIAL ZONE, LAIXI CITY QINGDAO SHANDONG 266604","country_code":"CN","lat":36.6655349,"lng":120.5965411,"country_name":"China","contributors":"Nike [Public List] (Nike November 2018 Facility List)"},{"id":"CN2019085G289BR","name":"KUO YUEN (CHINA)","address":"YUE YUEN INDUSTRIAL AREA, HELU MANAGEMENT AREA, HUANG JIANG, DONGGUAN, GUANGDONG DONGGUAN GUANGDONG 523000","country_code":"CN","lat":22.877538,"lng":113.992638,"country_name":"China","contributors":"Nike [Public List] (Nike November 2018 Facility List)"},{"id":"CN2019085G3NWEW","name":"HUAIAN YUANTONG HEADWEAR MFG. CO, LTD.","address":"NO.30 YAN HUANG AVENUE HUAI AN JIANGSU 223400","country_code":"CN","lat":33.7876489,"lng":119.2669084,"country_name":"China","contributors":"Gap Inc (Gap Inc April 2019 - Factory List)|Agreement on Sustainable Garments and Textile (AGT) (68_2018)|Nike [Public List] (Nike November 2018 Facility List)|Levi Strauss & Co. (Levi Strauss Co Facility List March 2019)"},{"id":"CN2019085GCNY6Z","name":"RAMATEX APPAREL (SUZHOU) LTD.","address":"115 TING NAN LU, WEI TING TOWN, SUZHOU INDUSTRIAL PARK, P.R.CHINA SUZHOU JIANGSU 215121","country_code":"CN","lat":31.3522833,"lng":120.8110409,"country_name":"China","contributors":"Nike [Public List] (Nike November 2018 Facility List)"},{"id":"CN2019085GD6W8H","name":"FLEXTRONICS MANUFACTURING (ZHUHAI) CO, LTD","address":"XIN QING SCIENCE & TECHNOLOGY INDUSTRIAL PARK ZHUHAI GUANGDONG 519180","country_code":"CN","lat":22.17521,"lng":113.276724,"country_name":"China","contributors":"Nike [Public List] (Nike November 2018 Facility List)"},{"id":"CN2019085GV6J7M","name":"QINGDAO YANTAI NE APPAREL CO.,LTD","address":"NO. 26 HAIYANG YANTAI ECONOMIC DEVELOPMENT ZONE. YANTAI SHANDONG 265100","country_code":"CN","lat":36.7789177,"lng":121.1571902,"country_name":"China","contributors":"Nike [Public List] (Nike November 2018 Facility List)"},{"id":"CN2019085HBK3EA","name":"SHOETOWN HUNAN FOOTWEAR CO.,LTD","address":"DENG TA ROAD, QIYANG DEVELOPMENT ZONE QIYANG COUNTY YONGZHOU CITY HUNAN PROVINCE 426100","country_code":"CN","lat":26.5801044,"lng":111.8405425,"country_name":"China","contributors":"Nike [Public List] (Nike November 2018 Facility List)"},{"id":"CN2019085HHCESZ","name":"SUZHOU ARISE EMBROIDERY CO., LTD","address":"NO. 16 PUZHUANG INDUSTRIAL PARK, PUZHUANG BOULEVARD SUZHOU JIANGSU 215105","country_code":"CN","lat":31.1670131,"lng":120.4987747,"country_name":"China","contributors":"Nike [Public List] (Nike November 2018 Facility List)"},{"id":"CN2019085HX15XV","name":"S.E.C. (DONGGUAN) ACCESSORIES LIMITED","address":"DA LONG XIN WEI ZAI VILLAGE GROUP DONGGUAN CITY GUANGDONG PROVINCE, CHINA","country_code":"CN","lat":22.956261,"lng":114.184675,"country_name":"China","contributors":"Nike [Public List] (Nike November 2018 Facility List)"},{"id":"CN2019085HXADZE","name":"ZHONGSHAN WEI LI TEXTILE CO.,LTD.","address":"THE SECOND IND.AREA, SANXIANG TOWN ZHONGSHAN GUANGDONG 528463","country_code":"CN","lat":22.358169,"lng":113.440958,"country_name":"China","contributors":"Nike [Public List] (Nike November 2018 Facility List)|adidas (adidas)"},{"id":"CN2019085J18QC8","name":"Bosideng Co., Ltd.Changshu Garment Factory","address":"Bosideng Industrial Zone, Jiangsu,China, Changshu","country_code":"CN","lat":31.654375,"lng":120.752481,"country_name":"China","contributors":"PVH [Public List] (PVH December 31 2018 Facility List)|adidas (adidas)"},{"id":"CN2019085JBGMZA","name":"EAGLE NICE (YIFENG) GARMENTS CO., LTD","address":"INDUSTRIAL DISTRICT, YIFENG CITY YIFENG JIANGXI EAG01","country_code":"CN","lat":28.3898565,"lng":114.7785768,"country_name":"China","contributors":"Nike [Public List] (Nike November 2018 Facility List)"},{"id":"CN2019085JW0HS2","name":"SONGSEN GARMENT SUZHOU LTD","address":"16 HE XING WEST ROAD, LUZHI DISTRICT SUZHOU JIANGSU 215127","country_code":"CN","lat":31.2693012,"lng":120.8650673,"country_name":"China","contributors":"Nike [Public List] (Nike November 2018 Facility List)"},{"id":"CN2019085KB14EV","name":"ZHEJIANG QIAOER TINTING GARMENT CO LTD","address":"NO 147 WEST RENMIN ROAD SHANGYU CITY ZHEJIANG 312300","country_code":"CN","lat":30.012602,"lng":120.857845,"country_name":"China","contributors":"Gap Inc (Gap Inc April 2019 - Factory List)|Nike [Public List] (Nike November 2018 Facility List)|Uniqlo (Factories) [Public List] (Uniqlo March 30 2018 Facility List)"},{"id":"CN2019085KBT3W1","name":"PEGASUS FOOTWEAR CO. LTD.","address":"21, LANJIU ROAD, JIUBI VILLAGE GUANGZHOU GUANGDONG 511473","country_code":"CN","lat":22.837898,"lng":113.387615,"country_name":"China","contributors":"Nike [Public List] (Nike November 2018 Facility List)"},{"id":"CN2019085KGPZ57","name":"QINGDAO TAEJIN SHOES CO., LTD","address":"LANCUN TOWN JIMO CITY SHANDONG 250011","country_code":"CN","lat":36.389401,"lng":120.44716,"country_name":"China","contributors":"Nike [Public List] (Nike November 2018 Facility List)"},{"id":"CN2019085KR7MXD","name":"FUJIAN SAN FENG FOOTWEAR CO.,LTD","address":"NO. 399, CHENGMEN STREET, CHENGMEN TOWN, CANGSHAN DISTRICTS FUZHOU FUJIAN 350018","country_code":"CN","lat":26.001889,"lng":119.359635,"country_name":"China","contributors":"Nike [Public List] (Nike November 2018 Facility List)"},{"id":"CN2019085KWAN91","name":"Yumei (Shantou) Garments Co., Ltd.","address":"No.48 HengShan Road ,Shantou ,Guang Dong Province,China Shantou","country_code":"CN","lat":23.380671,"lng":116.727444,"country_name":"China","contributors":"PVH [Public List] (PVH December 31 2018 Facility List)|Nike [Public List] (Nike November 2018 Facility List)"},{"id":"CN2019085M05FDZ","name":"QING YUAN CITY SHOETOWN FOOTWEAR CO.,LTD","address":"TAIHE INDUSTRIAL ZONE, QINGXIN COUNTY QINGYUAN CITY GUANGDONG PROVINCE 5118000","country_code":"CN","lat":23.7381255,"lng":112.9945893,"country_name":"China","contributors":"Nike [Public List] (Nike November 2018 Facility List)"},{"id":"CN2019085MKD1TS","name":"YANCHENG XINBO APPAREL CO. LTD","address":"NO 11 CHANGJIANG ROAD YANCHENG JIANGSU 0","country_code":"CN","lat":33.370605,"lng":120.230842,"country_name":"China","contributors":"Nike [Public List] (Nike November 2018 Facility List)"},{"id":"CN2019085NR3745","name":"WILSON INT'L IND CO., LTD","address":"2ST TOWN, WENTONG INDUSTRY SECTION DONGGUAN GUANGDONG 523121","country_code":"CN","lat":23.0394811,"lng":113.8339586,"country_name":"China","contributors":"Nike [Public List] (Nike November 2018 Facility List)"},{"id":"CN2019085P8Z2FR","name":"ZHIJIE FOOTWEAR TECHNICAL SERVICE(ZHONGSHAN)CO.,LTD..","address":"JINGYE RD., HUOJU DEVELOPMENT ZONE ZHONGSHAN GUANGDONG 528437","country_code":"CN","lat":22.560717,"lng":113.4517209,"country_name":"China","contributors":"Nike [Public List] (Nike November 2018 Facility List)"},{"id":"CN2019085PMN18J","name":"TMI ZHONGSHAN CO LTD","address":"NO.48 KE JI ROAD, TORCH INDUSTRIAL DEVELOPMENT ZONE ZHONG SHAN GUANGDONG 528437","country_code":"CN","lat":22.2949626,"lng":113.4448994,"country_name":"China","contributors":"Nike [Public List] (Nike November 2018 Facility List)"},{"id":"CN2019085PS0MXA","name":"FUJIAN XIEFENG FOOTWEAR CO.,LTD.","address":"XI TIAN WEI TOWN,LICHENG DISTRIC PUTIAN FUJIAN 351131","country_code":"CN","lat":25.4850752,"lng":119.0429816,"country_name":"China","contributors":"Nike [Public List] (Nike November 2018 Facility List)"},{"id":"CN2019085PWR0D1","name":"FUQING TUNTEX GARMENT, CO. LTD (MDC)","address":"RONGQIAO INDUCTRIAL ZONE, QUINGHUNG RD FUQING FUJIAN 350301","country_code":"CN","lat":25.721589,"lng":119.371062,"country_name":"China","contributors":"Nike [Public List] (Nike November 2018 Facility List)"},{"id":"CN2019085PWVFX3","name":"POWER WIN PLASTIC PRODUCTS (S.Z.) COMPANY LIMITED","address":"BLOCK C FLOOR 1-3, NO.4 GONGLIU ROAD, SHENZEN SHENZHEN 0","country_code":"CN","lat":43.482628,"lng":82.231718,"country_name":"China","contributors":"Nike [Public List] (Nike November 2018 Facility List)"},{"id":"CN2019085QFQFH7","name":"DONGGUAN LIEN HONG BAGS & SPORTS ACCESSORIES LTD.","address":"NIU SHAN INDUSTRIAL AREA, NIU SHAN DONGCHENG DISTRICT, DONG GUAN CITY, GUANGDONG PROVINCE, CHINA DONG GUAN GUANGDONG","country_code":"CN","lat":22.961654,"lng":113.76102,"country_name":"China","contributors":"Nike [Public List] (Nike November 2018 Facility List)"},{"id":"CN2019085R2FAB8","name":"TONG HONG CHINA","address":"LIANZHOU HEPU BEIHAI GUANGXI 536100","country_code":"CN","lat":21.6566091,"lng":109.2033416,"country_name":"China","contributors":"Nike [Public List] (Nike November 2018 Facility List)"},{"id":"CN2019085RCHQ4T","name":"LION BROTHERS FAR EAST","address":"NO. 62, UPPER NORTH LANE 4, SHANGNAN INDUSTRIAL ZONE BAOAN GUANGDONG 518125","country_code":"CN","lat":22.7166937,"lng":113.8483942,"country_name":"China","contributors":"Nike [Public List] (Nike November 2018 Facility List)"},{"id":"CN2019085RGZRPZ","name":"QUANZHOU  FENGZE YISHENG LEATHER CO","address":"BUILDING 3, SOUTH, XUNMEI INDUSTRY DISTRICT. QUANZHOU FUJIAN","country_code":"CN","lat":24.805622,"lng":118.369085,"country_name":"China","contributors":"Nike [Public List] (Nike November 2018 Facility List)"},{"id":"CN2019085RZNZ2Q","name":"SHAO YANG COUNTY STEIIA FOOTWEAR LTD","address":"SHAO YANG COUNTY INDUSTRIAL DISTRICT SHAOYANG HUNAN 422000","country_code":"CN","lat":27.2280656,"lng":111.4589472,"country_name":"China","contributors":"Nike [Public List] (Nike November 2018 Facility List)"},{"id":"CN2019085SD6HMV","name":"WALT TECHNOLOGY GROUP CO., LTD.","address":"48 SHIJING ROAD HAINING ZHEJIANG 314400","country_code":"CN","lat":30.5391531,"lng":120.728355,"country_name":"China","contributors":"Nike [Public List] (Nike November 2018 Facility List)|Asics [Public List] (Asics 2018 Facility LIst)"},{"id":"CN2019085SFA433","name":"FUJIAN WEILIN INDUSTRIAL CO., LTD","address":"DONGTIAN VILLAGE, YANGXIA TOWN FUQING FUJIAN 350323","country_code":"CN","lat":25.7625307,"lng":119.4165791,"country_name":"China","contributors":"Nike [Public List] (Nike November 2018 Facility List)"},{"id":"CN2019085SG2DWY","name":"UNITED CREATION OPTICAL","address":"TIESONG DISTRICT, QINGXI TOWN, DONGGUAN GUANGDONG","country_code":"CN","lat":22.833597,"lng":114.1909657,"country_name":"China","contributors":"Nike [Public List] (Nike November 2018 Facility List)"},{"id":"CN2019085T675H7","name":"ITW SPORTS BRANDING ENPING","address":"PUQIAO ECONOMIC INDUSTRY DEVELOP DISTRICT ENPING GUANGDONG 0","country_code":"CN","lat":22.337826,"lng":112.478871,"country_name":"China","contributors":"Nike [Public List] (Nike November 2018 Facility List)"},{"id":"CN2019085T7E3D9","name":"NINGBO SHENZHOU KNITTING CO. LTD","address":"50 TIANMUSHAN ROAD NINGBO ZHEJIANG 315800","country_code":"CN","lat":29.916673,"lng":121.793022,"country_name":"China","contributors":"Nike [Public List] (Nike November 2018 Facility List)"},{"id":"CN2019085T9B6ZX","name":"LONG CHUAN SIMONA FOOTWEAR CO. LTD","address":"XIN CHENG LONG CHUAN HEYUAN GUANGDONG 517300","country_code":"CN","lat":24.1044154,"lng":115.2407022,"country_name":"China","contributors":"Nike [Public List] (Nike November 2018 Facility List)"},{"id":"CN2019085T9CRN6","name":"PREMIER OPTICAL (SHENZHEN) LIMITED COMPNAY","address":"4/F, BLOCK A, NO.1 BAO LONG 5TH ROAD, LONGGANG STREET, LONGGANG DISTRICT SHENZHEN CITY PRC","country_code":"CN","lat":22.720974,"lng":114.246899,"country_name":"China","contributors":"Nike [Public List] (Nike November 2018 Facility List)"},{"id":"CN2019085TFDES7","name":"ANHUI COSMO SPORTING GOODS COMPANY LIMITED","address":"ECONOMIC DEVELOPMENT ZONE, JINZHAI COUNTY LU'AN CITY ANHUI","country_code":"CN","lat":31.72717,"lng":115.934366,"country_name":"China","contributors":"Nike [Public List] (Nike November 2018 Facility List)"},{"id":"CN2019085THXJTY","name":"GUANG YANG SPORTING CO., LTD","address":"SHAN TANG INDUSTRIAL ZONE, DI DI VILLAGE, SHAN TANG TOWN, QING XIN COUNTY QING YUAN GUANGDONG 511800","country_code":"CN","lat":23.6873,"lng":112.944495,"country_name":"China","contributors":"Nike [Public List] (Nike November 2018 Facility List)"},{"id":"CN2019085TTXCRZ","name":"SHIXING TIAN HE GARMENTS CO. LTD.","address":"XING SHENG INDUSTRIAL PARK. JIANG KOU TOWN, SHI XING DISTRICT SHAO GUANG GUANGDONG","country_code":"CN","lat":24.247219,"lng":114.011989,"country_name":"China","contributors":"Nike [Public List] (Nike November 2018 Facility List)"},{"id":"CN2019085WC0BSP","name":"NEW WIN BELT AND ACCESSORIES","address":"2188 XIN QUN ROAD PINGHU ZHEJIANG 314200","country_code":"CN","lat":30.6968178,"lng":121.0219569,"country_name":"China","contributors":"Nike [Public List] (Nike November 2018 Facility List)"},{"id":"CN2019085X3EB7A","name":"ZHEJIANG GUANGTAI DELTA SOCKS CO. LTD.","address":"36 KAIXIANG AVENUE CAOTA TOWN, ZHUJI ZHEJIANG 311812","country_code":"CN","lat":29.688124,"lng":120.137254,"country_name":"China","contributors":"Nike [Public List] (Nike November 2018 Facility List)"},{"id":"CN2019085X7B520","name":"YICHUN YISEN INDUSTRY CO., LTD","address":"ECONOMIC AND TECHNOLOGICAL DEVELOPMENT ZONE YICHUN CITY JIANGXI PROVINCE 336000","country_code":"CN","lat":27.8677381,"lng":114.3908459,"country_name":"China","contributors":"Nike [Public List] (Nike November 2018 Facility List)"},{"id":"CN2019085XV0AHX","name":"SUZHOU CHOICE CHUAN COMPUTER PRINTING CO., LTD","address":"NO. 8 INDUSTRIAL BUILDING, PUZHUANG INDUSTRIAL PARK SUZHOU JIANGSU 215105","country_code":"CN","lat":31.1763224,"lng":120.4992914,"country_name":"China","contributors":"Nike [Public List] (Nike November 2018 Facility List)"},{"id":"CN2019085Y3MS0R","name":"DONG GUAN NEW PROSPERITY OPTICAL MFY LTD. CHANG AN BRANCH","address":"NO.43 XIN FENG ROAD, XI MIN VILLAGE, CHANG AN TOWN DONGGUAN GUANGDONG 523879","country_code":"CN","lat":22.750878,"lng":113.772957,"country_name":"China","contributors":"Nike [Public List] (Nike November 2018 Facility List)|Levi Strauss & Co. (Levi Strauss Co Facility List March 2019)"},{"id":"CN2019085Y84C66","name":"NICE-BAG INTERNATIONAL IND CO.,LTD","address":"NO.2. HONGSHENG ROAD ECONOMIC DEVELOPMENT ZONE HUAI’AN CITY, JIANGSU PROVINCE, CHINA HUAI AN CITY JIANGSU 223005","country_code":"CN","lat":33.5709682,"lng":119.1609475,"country_name":"China","contributors":"Nike [Public List] (Nike November 2018 Facility List)"},{"id":"CN2019085YHQT5F","name":"LONG FA SHOES INDUSTRIAL (HUIZHOU) CO., LTD.","address":"LONGTING INDUS. PARK, LONGXI TOWN, BOLUO COUNTY HUIZHOU GUANGDONG 516121","country_code":"CN","lat":23.123441,"lng":114.115969,"country_name":"China","contributors":"Nike [Public List] (Nike November 2018 Facility List)"},{"id":"CN2019085YJCFC1","name":"HUI ZHOU STELLA FOOTWEAR CO.LTD.","address":"XINHU INDUSTRIAL DISTRICT, MA-AN TOWN GUANGDONG PROVINCE GUANGDONG 0","country_code":"CN","lat":23.3790333,"lng":113.7632828,"country_name":"China","contributors":"Nike [Public List] (Nike November 2018 Facility List)"},{"id":"CN2019085YJFGWN","name":"PMI JOINEASE PLASTIC & METAL PRODUCTS","address":"(HUI ZHOU) CO., LTD. HUI ZHOU GUANGDONG 516131","country_code":"CN","lat":23.215338,"lng":113.981207,"country_name":"China","contributors":"Nike [Public List] (Nike November 2018 Facility List)"},{"id":"CN2019085YK4EK0","name":"OKAMOTO HOSIERY (ZHANGJIAGANG) CO., LTD","address":"RENMIN MIDDLE ROAD, YANGSHE ZHANGJIAGANG JIANGSU 215600","country_code":"CN","lat":31.87743,"lng":120.549016,"country_name":"China","contributors":"Nike [Public List] (Nike November 2018 Facility List)"},{"id":"CN2019085YKWGNW","name":"JIAXING QUANG VIET GARMENT CO. LTD.","address":"PINGXINGXIAN TONGXINDUAN 318 XINDAI TOWN PING HU ZHEJIANG 314211","country_code":"CN","lat":30.819696,"lng":121.08105,"country_name":"China","contributors":"Nike [Public List] (Nike November 2018 Facility List)|adidas (adidas)"},{"id":"CN2019085Z4CS5Q","name":"PINGHU LIPAI BAGS AND LUGGAGE CO., LTD.","address":"NO. 123 HEHE RD, PINGHU ZHEJIANG 314202","country_code":"CN","lat":30.6560528,"lng":121.0628942,"country_name":"China","contributors":"Nike [Public List] (Nike November 2018 Facility List)"},{"id":"CN2019085ZH1VVH","name":"SHANGGAO YISEN INDUSTRY CO. LTD.","address":"YOUZIDONG,JINGJIANG TOWN, SHANGGAO COUNTY, YICHUN CITY, JIANGXI PROVINCE,PRC YICHUN JIANGXI 336400","country_code":"CN","lat":31.982751,"lng":120.277138,"country_name":"China","contributors":"Nike [Public List] (Nike November 2018 Facility List)"},{"id":"CN2019085ZH9NRG","name":"QING XIN GUANG JIAN SHOETOWN FOOTWEAR CO., LTD","address":"DA WAN GANG ADMINISTRATION ZONE QINGXIN QINGYUAN CITY GUANGDONG PROVINCE 511515","country_code":"CN","lat":23.6906863,"lng":113.0311513,"country_name":"China","contributors":"Nike [Public List] (Nike November 2018 Facility List)"},{"id":"CN2019085ZKEE6Y","name":"KUNSHAN SABRINA CLOTHES MAKING CO., LTD.","address":"NO.31 KONGXIANG EAST ROAD LUJIA TOWN KUNSHAN JIANGSU 215331","country_code":"CN","lat":31.3209833,"lng":121.0323515,"country_name":"China","contributors":"Nike [Public List] (Nike November 2018 Facility List)"},{"id":"CN2019085ZR77CV","name":"SHANGHAI YILIU GARMENT FACTORY","address":"BULLDING O,INDUSTRIAL PARK LVXIANG TOWN JINSHAN DISTRICT SHANGHAI SHANGHAI 200003","country_code":"CN","lat":30.829364,"lng":121.367321,"country_name":"China","contributors":"Nike [Public List] (Nike November 2018 Facility List)"},{"id":"CN201908694VAWS","name":"Zhejiang Bangjie Digital Knitting Share Co. Ltd","address":"South Section Suxi Town, 322009, Yiwu, China","country_code":"CN","lat":29.4056755,"lng":120.133724,"country_name":"China","contributors":"Aldi [Public List] (Aldi July 2018 Facility List)|Agreement on Sustainable Garments and Textile (AGT) (16_2018)|Agreement on Sustainable Garments and Textile (AGT) (29_2018)|C&A (C&A Supplier's facility list - April 2019)|adidas (adidas)"},{"id":"CN20190875AB76K","name":"Qingdao Youngone Sports Products Co.,Ltd","address":"#97, Laoshan 1 Road Jimo Economic Development Zone, Qingdao, Shandong","country_code":"CN","lat":36.3989,"lng":120.497077,"country_name":"China","contributors":"Fair Factories Clearinghouse (FFC FactoryList Apr 19)|Nike [Public List] (Nike November 2018 Facility List)|Levi Strauss & Co. (Levi Strauss Co Facility List March 2019)"},{"id":"CN2019087CQ2SFS","name":"Shanghai Qianrun Garments Co., Ltd","address":"NO. 233 Lane 1888, Daye Road,  Wuqiao industrial Zone, Fengxian District, Shanghai","country_code":"CN","lat":30.9728225,"lng":121.7141235,"country_name":"China","contributors":"Fair Factories Clearinghouse (FFC FactoryList Apr 19)|Kathmandu [Public List] (Kathmandu Public List current to March 28, 2019)|adidas (adidas)"},{"id":"CN2019087Y0EJKX","name":"Shanghai Challenge Garment Co., Ltd","address":"1918 Tingfeng Road, Tinglin, Jinshan District 201504, Shanghai","country_code":"CN","lat":30.8947309,"lng":121.2462491,"country_name":"China","contributors":"Kathmandu [Public List] (Kathmandu Public List current to March 28, 2019)|adidas (adidas)"},{"id":"CN201909360YP7A","name":"YONGZHOU KAIXIANG SHOETOWN FOOTWEAR CO., LTD.","address":"#421, DONGXIN ROAD, BAIYASHITOWN YONGZHOU HUNAN 425900","country_code":"CN","lat":26.3974365,"lng":111.2998524,"country_name":"China","contributors":"Nike [Public List] (Nike November 2018 Facility List)"},{"id":"CN2019093J4RYVG","name":"THERMOS (HUAI AN) HOUSEWARES CO.,LTD","address":"NO.56 HECHANG ROAD,ECONOMIC&TECHNOLOGICAL DEVELOPMENT ZONE,HUAIAN,JIANGSU PROVINCE,P.R.C HUAIAN JIANGSU 223005","country_code":"CN","lat":33.5764893,"lng":119.1420253,"country_name":"China","contributors":"Nike [Public List] (Nike November 2018 Facility List)"},{"id":"CN2019093K3B72K","name":"NINGBO SHENZHOU KNITTING CO. LTD. -#6 GARMENT FACTORY","address":"INTERSECTION OF DAGANG ROAD #5 ROAD & FENGYANG ROAD, DAGANG INDUSTRIAL ZONE NINGBO ZHEJIANG 315800","country_code":"CN","lat":29.9257363,"lng":121.81364,"country_name":"China","contributors":"Nike [Public List] (Nike November 2018 Facility List)"},{"id":"CN2019093P1PXSC","name":"QINGDAO CHANGSHIN JIMO FACTORY","address":"#49, YANQING ROAD JIMO, QINGDAO SHANDONG 266200","country_code":"CN","lat":36.349162,"lng":120.435981,"country_name":"China","contributors":"Nike [Public List] (Nike November 2018 Facility List)"},{"id":"CN2019093PZRV3M","name":"HUIZHOU YANGMING INDUSTRIAL CO., LTD.","address":"DA ZHONG TANG#1,XIA JIAO,HUIZHOU CITY GUANGDONG,CHINA HUIZHOU GUANGDONG 516001","country_code":"CN","lat":22.8192765,"lng":114.4345822,"country_name":"China","contributors":"Nike [Public List] (Nike November 2018 Facility List)"},{"id":"CN2019093V59BPK","name":"FUJIAN LIFENG FOOTWEAR CO., LTD.","address":"NO.888# QINXI NORTH STREET, WUTANG TOWN PUTIAN FUJIAN 351119","country_code":"CN","lat":25.5049143,"lng":119.0701866,"country_name":"China","contributors":"Nike [Public List] (Nike November 2018 Facility List)"},{"id":"CN2019093W5CH6D","name":"ROCKMAUI WEAR CO., LTD (***FOR DRAGONCROWD)","address":"#10 HUANG SU DONG ROAD NINGBO ZHEJIANG 315000","country_code":"CN","lat":29.802424,"lng":121.628123,"country_name":"China","contributors":"Nike [Public List] (Nike November 2018 Facility List)"},{"id":"CN2019093WZSXE8","name":"FAR EASTERN","address":"#1588, YINZHONG  S. ROAD JIANG SU JIANGSU 215124","country_code":"CN","lat":31.2046982,"lng":120.6670222,"country_name":"China","contributors":"Nike [Public List] (Nike November 2018 Facility List)"},{"id":"CN2019098453GW6","name":"Guangzhou Tien Sung Sporting Goods Co Ltd","address":"No.3 Tian Sheng Road,Yunpu Industrial Zone,Luogang District,Guangzhou,Guangdong,China","country_code":"CN","lat":23.141622,"lng":113.541351,"country_name":"China","contributors":"Fair Factories Clearinghouse (FFC FactoryList Apr 19)|adidas (adidas)"},{"id":"CN20190984M4T8C","name":"HangZhou  Jasan Socks Co.,Ltd","address":"No. 111 JinYi Road,,XiaoShan Economic Developing Zone,Hangzhou,Zhejiang,China","country_code":"CN","lat":30.20861,"lng":120.260536,"country_name":"China","contributors":"Fair Factories Clearinghouse (FFC FactoryList Apr 19)|adidas (adidas)"},{"id":"CN20190988NRTTQ","name":"Morito (Shenzhen) Co., Ltd.","address":"A District, Yuhong Industry Zone,Heyi Village, Shajing Town,Bao An District,Shenzhen,Guangdong,China","country_code":"CN","lat":22.713554,"lng":113.788085,"country_name":"China","contributors":"Fair Factories Clearinghouse (FFC FactoryList Apr 19)|adidas (adidas)"},{"id":"CN2019098ABZ1GK","name":"Fujian Pageone Garments Co., Ltd","address":"Chigang Overseas Chinese Economic Development Zone,Putian ,Fujian,China","country_code":"CN","lat":25.471546,"lng":119.179439,"country_name":"China","contributors":"Fair Factories Clearinghouse (FFC FactoryList Apr 19)|adidas (adidas)"},{"id":"CN2019098F50J0M","name":"Zhejiang Palma Dress Co Ltd","address":"Shendang Industrial Zone,Haiyan County,Jiaxing City,Zhejiang,China","country_code":"CN","lat":30.57612,"lng":120.823166,"country_name":"China","contributors":"Fair Factories Clearinghouse (FFC FactoryList Apr 19)|adidas (adidas)"},{"id":"CN2019098FT71HG","name":"Chaoyang Huahai Industry and Trade Co.,Ltd (New)","address":"Culture road five section of no. 103,Longcheng Distrct,Chaoyang,Liaoning,China","country_code":"CN","lat":41.576749,"lng":120.413376,"country_name":"China","contributors":"Fair Factories Clearinghouse (FFC FactoryList Apr 19)|adidas (adidas)"},{"id":"CN2019098KRRNDK","name":"Qingdao Tenghua Apparel Co.Ltd.","address":"219 North of Chong Qing Road,Chengyang,Qingdao,Shandong,China","country_code":"CN","lat":36.252439,"lng":120.400041,"country_name":"China","contributors":"Fair Factories Clearinghouse (FFC FactoryList Apr 19)|Pentland [Public List] (Pentland Facility List Tier 1 March 26 2019)|adidas (adidas)"},{"id":"CN2019098N1EWBS","name":"Fu Son Garment Factory","address":"#1 Beiqu Avenue,Yagang Village,Sanxiang Town,Zhongshan,Guangdong,China","country_code":"CN","lat":22.3351544,"lng":113.4512714,"country_name":"China","contributors":"Fair Factories Clearinghouse (FFC FactoryList Apr 19)|adidas (adidas)"},{"id":"CN2019098Q6GPCX","name":"Universal (ZhongShan) Garment Co Ltd","address":"Ping Dong Industrial Zone,Dong Cheng Lu No.1,San Xiang Town,Zhongshan,Guangdong,China","country_code":"CN","lat":22.33319,"lng":113.437168,"country_name":"China","contributors":"Fair Factories Clearinghouse (FFC FactoryList Apr 19)|adidas (adidas)"},{"id":"CN2019098W5MPB4","name":"Zhenjiang Tuntex Garment Co Ltd","address":"NO.10 Shi-Shi Road,Ju-Rong Economic Development Zone,212400,Zhenjiang,Jiangsu,China","country_code":"CN","lat":31.9544374,"lng":119.1386298,"country_name":"China","contributors":"Fair Factories Clearinghouse (FFC FactoryList Apr 19)|adidas (adidas)"},{"id":"CN2019098ZXC2A2","name":"Wiselink Industrial Co Ltd","address":"Tunto Industrial District,Loyang Burgh,Huian,Quanzhou,Fujian,China","country_code":"CN","lat":25.03078,"lng":118.796605,"country_name":"China","contributors":"Fair Factories Clearinghouse (FFC FactoryList Apr 19)|adidas (adidas)"},{"id":"CN2019100KVJKJ3","name":"Kunshan Gea-Reach Garments Co., Ltd","address":"NO. 577 JIGUANG NORTH RD, SHIPU QIANDENG TOWN, Kunshan, Jiangsu","country_code":"CN","lat":31.2487934,"lng":121.0405656,"country_name":"China","contributors":"Target Corporation (Target Apparel and Accessories Factory List July 2019)|adidas (adidas)"},{"id":"CN2019100MF4RFC","name":"NingBo HopeTime Enterprise Co.LTD","address":"NO 148 Huiquan Road Gaoxin Technology, Development Area Fenghua, Fenghua, Zhejiang","country_code":"CN","lat":29.6953887,"lng":121.4212989,"country_name":"China","contributors":"Target Corporation (Target Apparel and Accessories Factory List July 2019)|adidas (adidas)"},{"id":"CN201910823FCAG","name":"Yunfu Flir Garment Limited","address":"Xisan Road, Chucheng Industrial District, Yuncheng Yunfu Guangdong China","country_code":"CN","lat":22.946603,"lng":112.144119,"country_name":"China","contributors":"Gap Inc (Gap Inc April 2019 - Factory List)|adidas (adidas )"},{"id":"CN2019108HR5FNR","name":"Zhejiang Hepolilo Socks Industry Co Ltd","address":"No.382 Xiachuan Road, Haining Jiaxing Zhejiang China","country_code":"CN","lat":30.541555,"lng":120.722075,"country_name":"China","contributors":"Gap Inc (Gap Inc April 2019 - Factory List)|adidas (adidas)"},{"id":"CN201914302QHYD","name":"Bowker Venture Garment Factory (Yun Fu) Co. Ltd.","address":"Zhen Xing Industrial Park Chucheng Development District  Yunfu 527300 Guangdong China","country_code":"CN","lat":22.946603,"lng":112.144119,"country_name":"China","contributors":"adidas (adidas)"},{"id":"CN20191430EZ2RC","name":"Haining BLS Leather Co., Ltd.","address":"No.99 Longxing Road, The Leather City Industry Zone  Haining 314400 Zhejiang China","country_code":"CN","lat":30.5385829,"lng":120.66895,"country_name":"China","contributors":"adidas (adidas)"},{"id":"CN20191430T349F","name":"Dongguan Hechang Bags&Leather Goods,Co Ltd","address":"The 2nd Industrial Zone, Xinnan Village,Qishi Town, Dongguan Guangdong Province.   Dongguan 523500 Guangdong China","country_code":"CN","lat":22.6871845,"lng":113.9335178,"country_name":"China","contributors":"adidas (adidas)"},{"id":"CN201914313X6T6","name":"ASCOTT UNDERWEAR CO.,LTD.DALIAN","address":"1-4 LAYER NO.297 JINWAN ROAD ZHANQIAN STREET JINZHOU DISTRICT  DALIAN CITY 116000 Liaoning China","country_code":"CN","lat":39.085565,"lng":121.7123421,"country_name":"China","contributors":"adidas (adidas)"},{"id":"CN201914313Z0AJ","name":"Xiamen Spark Sports Goods Co Ltd","address":"NO. 55-56, SIMINGYUAN,  TONG'AN INDUSTRIAL CONCENTRATION AREA, TONG'AN Xiamen 361100 Fujian China","country_code":"CN","lat":24.6881481,"lng":118.1190091,"country_name":"China","contributors":"adidas (adidas)"},{"id":"CN20191431XK0F5","name":"Ningbo Shenzhou Knitting Co.,Ltd. No.5 Garment Factory","address":"No.19,Dagang Rd 5. , Xinqie,   Beilun District  Ningbo 315800  China","country_code":"CN","lat":29.9257363,"lng":121.81364,"country_name":"China","contributors":"adidas (adidas)"},{"id":"CN201914323486W","name":"QingDao Jangchun shoe Manufacturing co., LTD","address":"No.211,DongZhu Village, JiaoXi Town, Jiao Zhou District  Qingdao 266329 Shandong China","country_code":"CN","lat":36.259946,"lng":119.920857,"country_name":"China","contributors":"adidas (adidas)"},{"id":"CN20191432XRYB5","name":"Evervan Deyang Footwear Co. Ltd","address":"Heng Yang county Economic Technique, Development Zone, NO.1 Liansheng Road Hengyang 421200  Hunan China","country_code":"CN","lat":26.9629001,"lng":112.407886,"country_name":"China","contributors":"adidas (adidas)"},{"id":"CN201914334J6GM","name":"WuYi ShunFeng Stainless Steel Products Co., Ltd.","address":"No.2, WuJin Road,  TongQin Ind. Zone,WuYi County  JinHua 321200 Zhejiang China","country_code":"CN","lat":28.8927037,"lng":119.8163599,"country_name":"China","contributors":"adidas (adidas)"},{"id":"CN201914337DJS7","name":"Cheng Guan Sport Product Technology Co. ltd","address":"Xin cheng Industrial Park, Liao Bu Town   Dongguan 523426 Guangdong China","country_code":"CN","lat":22.991746,"lng":113.884753,"country_name":"China","contributors":"adidas (adidas)"},{"id":"CN20191433DSZYB","name":"Yixing Huixing Garments Co Ltd","address":"No.3 Huixing South Road, Yicheng Town  Yixing 214200 Jiangsu China","country_code":"CN","lat":31.380077,"lng":119.842355,"country_name":"China","contributors":"adidas (adidas)"},{"id":"CN20191433YPRYJ","name":"Fuluh Corporation","address":"7th Fuxing Investment Zone, Fuxing Road Gushan Town Fuzhou Fuzhou 350014 Fujian China","country_code":"CN","lat":26.074478,"lng":119.296482,"country_name":"China","contributors":"adidas (adidas)"},{"id":"CN201914349T50H","name":"Shenzhou Knitting (Quzhou) Co Ltd","address":"39 Donggang 1 Rd Economic Development Zone  Quzhou 324000 Zhejiang China","country_code":"CN","lat":28.951808,"lng":118.984942,"country_name":"China","contributors":"adidas (adidas)"},{"id":"CN20191434NS7JG","name":"Yue Yuen (Anfu) footwear Co.,Ltd. (YYJ)","address":"No.888 of AnHua Road Anfu Insdustrial Zone  Ji'An 343200 Jiangxi China","country_code":"CN","lat":27.406977,"lng":114.6944319,"country_name":"China","contributors":"adidas (adidas)"},{"id":"CN20191434QS6ZY","name":"Evervan Qingyuan Footwear Co. Ltd","address":"NO. 16 BAPIAN Road,  Taihe Industrial Park, Qingxin District Qingyuan 511800 Guangdong China","country_code":"CN","lat":23.738783,"lng":113.012938,"country_name":"China","contributors":"adidas (adidas)"},{"id":"CN20191434S1N1S","name":"Ningbo Bridge Auslanbo Knitting, Co. Ltd. (New)","address":"Bridge  industrial zone , 500# guangwen road,  shiqi town Ningbo 315153 Zhejiang China","country_code":"CN","lat":29.795808,"lng":121.4824289,"country_name":"China","contributors":"adidas (adidas)"},{"id":"CN20191434S8H50","name":"Shirotori Creation Co, Ltd. (NEW)","address":"No. 8 Guang  Yao Road Dong Sheng Town   Zhongshan 528400 Guangdong China","country_code":"CN","lat":22.6518153,"lng":113.2790291,"country_name":"China","contributors":"adidas (adidas)"},{"id":"CN20191434XEAWT","name":"Zhongshan Gang Yi Knitting Fty","address":"136 BANFU SOUTH ROAD SHENWAN VILLAGE Banfu Town  ZHONGSHAN GUANGDONG PROVINCE  Zhongshan 528459 Guangdong China","country_code":"CN","lat":22.377731,"lng":113.352021,"country_name":"China","contributors":"adidas (adidas)"},{"id":"CN20191435621F2","name":"Fujian Putian Lake Sports Goods Co., Ltd.","address":"NanShaoLin Industry Park, XiTianWei Town, LiCheng District PuTian 351100 Fujian China","country_code":"CN","lat":25.5067231,"lng":119.0369596,"country_name":"China","contributors":"adidas (adidas)"},{"id":"CN20191435K04WX","name":"Qingdao Atago Apparel Co., Ltd.","address":"No.1, Fenghuang Shan 5 Road Qingdao Northern Industrial Park, Jimo City, Qingdao 266217 Shandong China","country_code":"CN","lat":36.068953,"lng":120.324186,"country_name":"China","contributors":"adidas (adidas)"},{"id":"CN201914364RGF6","name":"Suzhou Industrial Park Tianyuan Garments Co., Ltd","address":"No. 157, Yushan Road New District  SuZhou 215011 Jiangsu China","country_code":"CN","lat":31.286337,"lng":120.550255,"country_name":"China","contributors":"adidas (adidas)"},{"id":"CN20191436JW531","name":"Dongguan ZhengYong Leather Accessories Co., Ltd","address":"Block #6,  the 2nd District of Liwu Wusha Chang'an Town  Dongguan 523850 Guangdong China","country_code":"CN","lat":22.814768,"lng":113.802516,"country_name":"China","contributors":"adidas (adidas)"},{"id":"CN20191436QKRT7","name":"Xuancheng Naier Socks Co. Ltd","address":"Huangdu Road, Xuanzhou District   Xuancheng 242000 Anhui China","country_code":"CN","lat":30.7923079,"lng":118.8517377,"country_name":"China","contributors":"adidas (adidas)"},{"id":"CN20191436ZV8YB","name":"Quanzhou Xingzhu Shoes Material Co. Ltd.","address":"Jin jiang Economic Development Zone   Quanzhou 362200 Fujian China","country_code":"CN","lat":24.775447,"lng":118.619477,"country_name":"China","contributors":"adidas (adidas)"},{"id":"CN201914371NAFV","name":"Hangzhou De Licacy textile., co.,Ltd.","address":"NO.15, 14th street, Hangzhou economic & technological   Hangzhou 310018  China","country_code":"CN","lat":30.3160096,"lng":120.3739407,"country_name":"China","contributors":"adidas (adidas)"},{"id":"CN201914376E58D","name":"HYOWON Shoe Manufacturing (Dalian) Co., Ltd","address":"Lingqianwei, Xingda Street, Zhuanghe  Dalian 116400 Liaoning China","country_code":"CN","lat":39.0341026,"lng":121.7563474,"country_name":"China","contributors":"adidas (adidas)"},{"id":"CN201914384DJM4","name":"Ganzhou Chuangda Footwear Ltd","address":"Shahe Industrial Park Zhanggong District  Ganzhou 341000 Jiangxi China","country_code":"CN","lat":25.8245832,"lng":114.9739912,"country_name":"China","contributors":"adidas (adidas)"},{"id":"CN20191438Y6K15","name":"Shantou Yong May Garment Mfg Fty Co Ltd","address":"Build. 4 & 6 Pengzhong Industry Area Yingbin South Road, Waisha Town,   Shantou 515823 Guangdong China","country_code":"CN","lat":23.4332435,"lng":116.7530414,"country_name":"China","contributors":"adidas (adidas)"},{"id":"CN20191438ZTYNS","name":"Xiamen Pheasant Hi-Tech Aluminium Co Ltd","address":"No. 3 Industrial District Houxi, Xincun, Jimei,  Xiamen 361024 Fujian China","country_code":"CN","lat":24.629221,"lng":118.04151,"country_name":"China","contributors":"adidas (adidas)"},{"id":"CN201914391HYWT","name":"Jiangsu Tianhai Garments Co.,Ltd","address":"NO.8,Tianhai Road Guoyuan, Changjiang Town  Rugao City 226542 Jiangsu China","country_code":"CN","lat":32.151494,"lng":120.5999519,"country_name":"China","contributors":"adidas (adidas)"},{"id":"CN20191439MSAEK","name":"Dalian Huahong Sports Tool Co.,Ltd","address":"Taiping Industry Zone PUWAN NEW DISTRICT   Pulandian 116200 Liaoning China","country_code":"CN","lat":39.431407,"lng":121.9044433,"country_name":"China","contributors":"adidas (adidas)"},{"id":"CN2019143ACK0M2","name":"Qingdao Daxian Leather Co Ltd","address":"Maojiazhuang-Chun Ligezhouang-Zhen  Jiaozhou Shi 266316 Shandong China","country_code":"CN","lat":36.3577699,"lng":120.1491111,"country_name":"China","contributors":"adidas (adidas)"},{"id":"CN2019143AEKS7G","name":"Framas China Ltd(Fuzhou)","address":"Lianhuang Road Xiashan Village Aojiang Town Fuzhou 350500 Fujian China","country_code":"CN","lat":26.034679,"lng":118.957778,"country_name":"China","contributors":"adidas (adidas)"},{"id":"CN2019143AXBMHW","name":"Fuzhou  HuiFu  Shoes Made  Co.LTD","address":"Xianzhi Street NO.42 Huitou Industrial subdistrict Mawei Fuzhou 350014 Fujian China","country_code":"CN","lat":26.290761,"lng":119.142323,"country_name":"China","contributors":"adidas (adidas)"},{"id":"CN2019143B1N0X3","name":"Zhong Shan Carpi De Knit Apparel Mfg. Co. Ltd","address":"Industrial Zone of Banfu Town   Zhongshan 528459 Guangdong China","country_code":"CN","lat":22.383475,"lng":113.334541,"country_name":"China","contributors":"adidas (adidas)"},{"id":"CN2019143B35EV1","name":"Yancheng Charlotte Socks Co. Ltd","address":"NO. 188 YINGBIN AVENUE XIANGSHUI CITY  Yancheng 224600 Jiangsu China","country_code":"CN","lat":33.98601,"lng":119.832135,"country_name":"China","contributors":"adidas (adidas)"},{"id":"CN2019143BNECHG","name":"Anhui Palma Dress Co., Ltd.","address":"SiXian Economic Development Zone   SuZhou 234300 Anhui China","country_code":"CN","lat":33.467879,"lng":117.903196,"country_name":"China","contributors":"adidas (adidas)"},{"id":"CN2019143BVSCVB","name":"Luenhung Plastic and Mold Factory","address":"3 Vanshun Rd. Nuishipa Village, Liuyue Long Gang District Henggan n/a  China","country_code":"CN","lat":22.638036,"lng":114.188739,"country_name":"China","contributors":"adidas (adidas)"},{"id":"CN2019143BVZ6FZ","name":"Jiangsu Huihe Garments Co.Ltd","address":"No.218 Liang Chang Road   Jin Tan 213200 Jiangsu China","country_code":"CN","lat":31.760389,"lng":119.586343,"country_name":"China","contributors":"adidas (adidas)"},{"id":"CN2019143C1HNC4","name":"Shanghai Xinfeng Garment Co., Ltd","address":"No.66 Lane 257 Zhuting Road Yexie Town Songjiang District    Shanghai 201608 Shanghai Shi China","country_code":"CN","lat":30.933295,"lng":121.275028,"country_name":"China","contributors":"adidas (adidas)"},{"id":"CN2019143C23FZ4","name":"Putian Shingchang Footwear Industry Co., Ltd.","address":"MinYing Industrial District Nanshaolin Road XiTianWei PuTian 35110 Fujian China","country_code":"CN","lat":25.5067684,"lng":119.0369664,"country_name":"China","contributors":"adidas (adidas)"},{"id":"CN2019143C6MEYQ","name":"Yueyang Wanfeng footwear factory","address":"Kangwang Science and Technology Park,  Economic Delevopment District  Yueyang 414000 Hunan China","country_code":"CN","lat":29.3409918,"lng":113.1477691,"country_name":"China","contributors":"adidas (adidas)"},{"id":"CN2019143D4AXWS","name":"Guangzhoushi Cortina Sports Goods Co. Ltd.","address":"20A,1-2floor LINGXING INDUSTRY SECTION,LIANHUASHAN BONDED PROCESSING PANYU GUANGZHOU City 511447 Guangdong China","country_code":"CN","lat":23.010539,"lng":113.303712,"country_name":"China","contributors":"adidas (adidas)"},{"id":"CN2019143DWF5KN","name":"Smartballs Ag.","address":"Lushan City Industrial Park, Jiujiang City, Jiangxi Province, China  Jiujiang City 332800 Jiangxi China","country_code":"CN","lat":29.4485425,"lng":116.0448188,"country_name":"China","contributors":"adidas (adidas)"},{"id":"CN2019143E2G6T5","name":"Shanghai Yutuo Knitting Co. Ltd","address":"NO 118 KANBEI ROAD SITUAN TOWN FENGXIAN DISTRICT Shanghai 201412 Shanghai Shi China","country_code":"CN","lat":30.932149,"lng":121.727809,"country_name":"China","contributors":"adidas (adidas)"},{"id":"CN2019143EGVPJ6","name":"Zhejian Kingvac Plastic & Electric Products","address":"No. 30 3rd Donggang Road Economic Development Zone  Quzhou 32400 Zhejian China","country_code":"CN","lat":28.970079,"lng":118.859457,"country_name":"China","contributors":"adidas (adidas)"},{"id":"CN2019143EXTVTZ","name":"Shanghai Nikki Fashion Co., Ltd.","address":"189 Beidou Road Minhang Economic & Technological Developement Zone  Shanghai 200245 Shanghai China","country_code":"CN","lat":31.004697,"lng":121.381246,"country_name":"China","contributors":"adidas (adidas)"},{"id":"CN2019143EZNVXZ","name":"YIA-CHYNS TEXTILE (SHANGHAI) CORP","address":"BUILDING 2, NO.688 FENG YONG ROAD, FENGXIAN DISTRICT   Shanghai 201414 Shanghai Shi China","country_code":"CN","lat":30.912019,"lng":121.608818,"country_name":"China","contributors":"adidas (adidas)"},{"id":"CN2019143F11WDZ","name":"Jangchun Shoe Manufacturing Chaoyang Co Ltd","address":"#36C Building, No. 5-99E Wenhua Road,  Longcheng District Chaoyang 122000 Liaoning China","country_code":"CN","lat":41.58387,"lng":120.4096479,"country_name":"China","contributors":"adidas (adidas)"},{"id":"CN2019143F59FSA","name":"Shenzhen Lihua Sport Accessories Co.,Ltd","address":"No.8,BaoXi  Road, Kengzi Office Pingshan New District  Shenzhen 518122 Guangdong China","country_code":"CN","lat":22.6960479,"lng":114.338418,"country_name":"China","contributors":"adidas (adidas)"},{"id":"CN2019143FYC8EM","name":"Haining United Socks Co. Ltd","address":"No. 360 Haifeng Road Haichang Street  Haining 314400 Zhejiang China","country_code":"CN","lat":30.5249779,"lng":120.6872561,"country_name":"China","contributors":"adidas (adidas)"},{"id":"CN2019143GD2059","name":"YAYORK PLASTICAL PRODUCTS (SHENZHEN) CO. LTD.","address":"6th Industrial Estate Tian Liao Village,  Gong Ming Guang Ming New District Shenzhen 518132 Guangdong China","country_code":"CN","lat":22.778837,"lng":113.891807,"country_name":"China","contributors":"adidas (adidas)"},{"id":"CN2019143HN6A83","name":"Dandong SLT Garment Industrial Co., Ltd","address":"Qianyang Economic Development Zone   Dan Dong 118301 Liaoning China","country_code":"CN","lat":39.958298,"lng":124.208101,"country_name":"China","contributors":"adidas (adidas)"},{"id":"CN2019143HY0VM3","name":"Dong Guan Yue Yuen Footwear Co Ltd (YYII-YC1)","address":"Yue Yuen Industrial Zone Shaotan Gaobu Town Dongguan 523286 Guangdong China","country_code":"CN","lat":23.090824,"lng":113.745951,"country_name":"China","contributors":"adidas (adidas)"},{"id":"CN2019143J8E0N2","name":"Shanghai Qingpu ACE Luggage & Bags Co.,Ltd","address":"No.4508 Beiqing Rd Huaxin Town QingPu District Shanghai 201705 Shanghai China","country_code":"CN","lat":31.197198,"lng":121.2331509,"country_name":"China","contributors":"adidas (adidas)"},{"id":"CN2019143JEJGKT","name":"FuJian XinLu Sports Products Co Ltd","address":"HuaLin Industrial Zone,  ChengXiang District,   PuTian City 351139 Fujian China","country_code":"CN","lat":25.3972664,"lng":118.9620192,"country_name":"China","contributors":"adidas (adidas)"},{"id":"CN2019143JH0QYX","name":"Fuzhou Development Zone Mega Union Shoes Co. Ltd.","address":"No.1 Shang Qi Road Mawei  Fuzhou 350015 Fujian China","country_code":"CN","lat":25.998274,"lng":119.458995,"country_name":"China","contributors":"adidas (adidas)"},{"id":"CN2019143K7M0M7","name":"Rich Policy (Zheng Yang Sporting Goods Co Ltd)","address":"NO.1 Hou Dao Road East, San Tun Industrial park, HouJie Town   Dongguan 523941 Guangdong China","country_code":"CN","lat":22.936585,"lng":113.67114,"country_name":"China","contributors":"adidas (adidas)"},{"id":"CN2019143K8SWG5","name":"Fujian Ching Luh Shoes Group Co. LTD.-Gushan","address":"Yuan Yang Village Fu Ma Road Fuzhou Fuzhou 350014 Fujian China","country_code":"CN","lat":26.061986,"lng":119.357448,"country_name":"China","contributors":"adidas (adidas)"},{"id":"CN2019143KJQXQN","name":"Jing-Tuo Exquisite Metal Decoration Factory","address":"Jinchuan Industrial Zone Zholin precinct Xiegang Town Dongguan 523595 Guangdong China","country_code":"CN","lat":22.962764,"lng":114.123264,"country_name":"China","contributors":"adidas (adidas)"},{"id":"CN2019143KYRW6G","name":"Dongguan City Shuoke Plastic & Metal Production Co., LTD","address":"DN-110 Jingshan No.3 Industrial Zone Chashan Town  Dongguan 523399 Guangdong China","country_code":"CN","lat":22.9097525,"lng":113.6656977,"country_name":"China","contributors":"adidas (adidas)"},{"id":"CN2019143M349PZ","name":"Wing Sing Plastic Hardware Co., Ltd.","address":"SongMugang Wulian Xian, FengGang,  Borough Dongguan City 523695 Guangdong China","country_code":"CN","lat":22.736884,"lng":114.132776,"country_name":"China","contributors":"adidas (adidas)"},{"id":"CN2019143M92Q83","name":"Jangchun Shoe Manufacuring Tongliao Co., Ltd.","address":"Tongliao Economic Technological Development Zone   Tongliao 028000 Inner Mongolia China","country_code":"CN","lat":43.650836,"lng":122.218609,"country_name":"China","contributors":"adidas (adidas)"},{"id":"CN2019143MQZENJ","name":"Ningbo Shenzhou Knitting Co Ltd (Factory 4)","address":"26 Nanhai Road Economic Technical Development Zone Dagang Industrial Ningbo 315800 Zhejiang China","country_code":"CN","lat":23.028956,"lng":113.143441,"country_name":"China","contributors":"adidas (adidas)"},{"id":"CN2019143MWY2M9","name":"Apache Footwear Ltd Jin Tan Branch Company","address":"Shangwan Village, Dawanggang, Jintan Town, Qingxing District   Qingyuan 511885 Guangdong China","country_code":"CN","lat":23.932177,"lng":113.238438,"country_name":"China","contributors":"adidas (adidas)"},{"id":"CN2019143MZ4EW6","name":"Zhejiang Wenti Socks Co Ltd","address":"No. 28 Zhisheng Rd,  CaoTa County  ZhuJi 311812 Zhejiang China","country_code":"CN","lat":29.6890481,"lng":120.1364882,"country_name":"China","contributors":"adidas (adidas)"},{"id":"CN2019143N2KT5E","name":"Tay Hsin (Nanhai, Foshan) Knitting Company Limited","address":"No1. Shabu Wes Rd., Shabu Industrial District,  Shachong, Lishui Town, Nanhai District, Foshan City. Guangdong Foshan 628244 Guangdong China","country_code":"CN","lat":23.144015,"lng":113.1658713,"country_name":"China","contributors":"adidas (adidas)"},{"id":"CN2019143N7CJ65","name":"Jiangxi Zhongjia  sports products co. LTD","address":"Yuetu industrial park Guangfeng county  Shaorao City 334600 Jiangxi China","country_code":"CN","lat":28.4309177,"lng":118.1656828,"country_name":"China","contributors":"adidas (adidas)"},{"id":"CN2019143NA0AZD","name":"Jiangsu Qian Li Ma Stockings Co. Ltd.","address":"Dong Lai Development Area Yang She Town  Zhang Jia Gang 215600 Jiangsu China","country_code":"CN","lat":31.8751495,"lng":120.5572027,"country_name":"China","contributors":"adidas (adidas)"},{"id":"CN2019143NEAT8M","name":"QMI Industrial (Shanghai) Limited","address":"515 Yuanfu Rd., Anting Town   Jiading 201814 Shanghai Shi China","country_code":"CN","lat":31.323739,"lng":121.191853,"country_name":"China","contributors":"adidas (adidas)"},{"id":"CN2019143NEEQ1E","name":"Fuxin Tianze Shoes Co., Ltd.","address":"103#¥_ëDongduan, Xinqu road, Leather inductry zone, Qinghemen district, Fuxin 123006 Liaoning China","country_code":"CN","lat":41.7828703,"lng":121.4178309,"country_name":"China","contributors":"adidas (adidas)"},{"id":"CN2019143NQZ1VC","name":"Ningbo Shenzhou Knitting Co.,Ltd.(No. 5) / Ningbo Shenzhou Knitting Co.,Ltd. No.5 Garment Factory","address":"No.38 Fengyang Road , Economic Technical Developm   Ningbo 315800 Zhejiang China","country_code":"CN","lat":29.9170083,"lng":121.8249474,"country_name":"China","contributors":"adidas (adidas)"},{"id":"CN2019143PZQS8J","name":"Dong Guan Pou Chen Footwear Company Limited","address":"Yue Yuen Industrial Park Shang Jiang Cheng Gaobu Town Dongguan 523287 Guangdong China","country_code":"CN","lat":23.0226359,"lng":113.8266608,"country_name":"China","contributors":"adidas (adidas)"},{"id":"CN2019143Q1BYZ5","name":"JiangSu Tianyuan Garments Co., Ltd","address":"No. 1 Yi Yuan Road Mingzuling Town  Xuyi 211758 Jiangsu China","country_code":"CN","lat":33.085192,"lng":118.474562,"country_name":"China","contributors":"adidas (adidas)"},{"id":"CN2019143QW2TE2","name":"Evervan Chang Ning Footwear Co.,Ltd. (EVL)","address":"Taizi Industry zone Qingyang road north,Qingyang new zone  Changning City 421500 Hunan China","country_code":"CN","lat":26.417313,"lng":112.398802,"country_name":"China","contributors":"adidas (adidas)"},{"id":"CN2019143RAY8BR","name":"Jiangsu Liberty Clothing Co., Ltd.","address":"88 Chenfeng Road   Jintan 213200 Jiangsu China","country_code":"CN","lat":31.753353,"lng":119.6006,"country_name":"China","contributors":"adidas (adidas)"},{"id":"CN2019143RT938B","name":"Wanyu (Qingxin) Plasticts Co., Ltd","address":"Taiping Industrial Park Qingxin  Qingyuan 511853 Guangdong China","country_code":"CN","lat":23.6700105,"lng":112.8873416,"country_name":"China","contributors":"adidas (adidas)"},{"id":"CN2019143S6C61Q","name":"Wuxi Pacific Knitting Co. Ltd.","address":"No8,No4 JINSHAN BRANCH ROAD JINSHANBEI INDUSTRY PARK, NO. 888 JIANGHAI ROAD(W), WUXI  214000  Jiangsu China","country_code":"CN","lat":31.6111819,"lng":120.2494249,"country_name":"China","contributors":"adidas (adidas)"},{"id":"CN2019143SFK3GK","name":"Shenzhen Fa Tin Textile and Fashion LTD","address":"Fa Tin Industrial building Fishermen Village Heping Road, Luo Hu strict Shen Zhen 518001 Guangdong China","country_code":"CN","lat":22.5367369,"lng":114.1157154,"country_name":"China","contributors":"adidas (adidas)"},{"id":"CN2019143SXYGNY","name":"Dalian Ichihiro Towel Co Ltd","address":"Dongbei 3rd Street No.11 Dalian Economic & Technical Development Zone Dalian 116600 Liaoning China","country_code":"CN","lat":39.042421,"lng":121.798133,"country_name":"China","contributors":"adidas (adidas)"},{"id":"CN2019143T65AK7","name":"Lianjiang Ching Luh Shoes Co.Ltd","address":"Aojiang Investment Zone,Aojiang Town Lianjiang,  Fuzhou 350500 Fujian China","country_code":"CN","lat":26.20567,"lng":119.544314,"country_name":"China","contributors":"adidas (adidas)"},{"id":"CN2019143TF5WT9","name":"Qingxin Sankeng Dahui Footwear Factory","address":"Anqing village Sankeng town   Qingyuan 511855 Guangdong China","country_code":"CN","lat":30.531919,"lng":117.115101,"country_name":"China","contributors":"adidas (adidas)"},{"id":"CN2019143TFYC1S","name":"Yantai Enyi Apparel Co., Ltd.","address":"No. 26, Yantai Street, Economic Development Zone,  Haiyang 265100 Shandong China","country_code":"CN","lat":36.741743,"lng":121.195736,"country_name":"China","contributors":"adidas (adidas)"},{"id":"CN2019143TXZC3A","name":"NingBo AiQiOu Garment Co., Ltd.","address":"No. 111 XiaoGao West Road XinXing Industrial Park  ShouNan Street  Ningbo 315194 Zhejiang China","country_code":"CN","lat":29.7977281,"lng":121.516958,"country_name":"China","contributors":"adidas (adidas)"},{"id":"CN2019143W4S8V1","name":"Dongguan Li Chao Plastic Products Co., Ltd.","address":"6TH ROAD, YIN CHENG INDUSTRIAL ZONE, XIA BIAN, CHANG AN TOWN,   Dongguan 523877 Guangdong China","country_code":"CN","lat":22.814768,"lng":113.802516,"country_name":"China","contributors":"adidas (adidas)"},{"id":"CN2019143WCA2B4","name":"ZHEJIANG CHENGPENG INDUSTRY AND TRADE CO LTD","address":"#3 WEIWE WEST RD. TONQIN HARDWARE & MACHINE IND. PARK, WUYI   JinHua 321200 Zhejiang China","country_code":"CN","lat":28.8927037,"lng":119.8163599,"country_name":"China","contributors":"adidas (adidas)"},{"id":"CN2019143X1ESMY","name":"Shicheng Xinhong Shoes Industrial Co., Ltd.","address":"G-28, Guzhang Industrial Park, Shicheng County   Ganzhou 342700 Jiangxi China","country_code":"CN","lat":26.3023446,"lng":116.3343517,"country_name":"China","contributors":"adidas (adidas)"},{"id":"CN2019143X6233G","name":"GP2 Xinfeng Plant Limited","address":"No.63, XinFeng Industrial Park XinFeng County,   Ganzhou 341600 Jiangxi China","country_code":"CN","lat":25.4324566,"lng":114.9168432,"country_name":"China","contributors":"adidas (adidas)"},{"id":"CN2019143X8CB12","name":"Qingdao Bright Garment Co., Ltd.","address":"57 Shuyundong Road, Unit 2-401, Chengyang   Qingdao 266107 Shandong China","country_code":"CN","lat":36.2581923,"lng":120.4576408,"country_name":"China","contributors":"adidas (adidas)"},{"id":"CN2019143XGGFN6","name":"Zhuji Quanneng Knitting Co., Ltd.","address":"NO22 Tianyuan Rd Lingshui Caota   ZhuJi 311812 Zhejiang China","country_code":"CN","lat":18.506048,"lng":110.037503,"country_name":"China","contributors":"adidas (adidas)"},{"id":"CN2019143XKBEEW","name":"Wanguo(Qingyuan) footwear Ltd","address":"Qingyuan Nation Industrial Park,  Lianzhou city  Qingyuan  513400 Guangdong China","country_code":"CN","lat":24.7751251,"lng":112.3758889,"country_name":"China","contributors":"adidas (adidas)"},{"id":"CN2019143XXN9RN","name":"Full Tech Co.,ltd","address":"No.52,Qianjin Road 3 3rd  Industrial Zone,Tanzhou Town Zhongshan city,GuangDong Zhongshan 528467 Guangdong China","country_code":"CN","lat":22.254504,"lng":113.468002,"country_name":"China","contributors":"adidas (adidas)"},